scan time: 2021-05-15 15:41:17.849
open [/dev/ttyUSB1] success.
$GPGGA,074118.000,3110.0150,N,12124.0417,E,1,08,0.95,33.6,M,8.0,M,,0000*6C
$GPGSA,A,3,03,14,17,22,02,09,19,06,,,,,1.67,0.95,1.37*0E
$GPGSV,4,1,13,17,66,033,42,28,63,206,13,19,56,340,39,06,48,286,42*71
$GPGSV,4,2,13,14,47,184,16,50,45,139,,193,42,134,,03,34,046,30*40
$GPGSV,4,3,13,02,18,267,40,09,16,132,23,04,15,097,,22,08,041,18*75
$GPGSV,4,4,13,01,08,060,*44
$GPRMC,074118.000,A,3110.0150,N,12124.0417,E,0.00,0.00,150521,,,A*66
$GPVTG,0.00,T,,M,0.00,N,0.0,K,A*0D
$GPGGA,074119.000,3110.0150,N,12124.0417,E,1,08,0.95,33.6,M,8.0,M,,0000*6D
$GPGSA,A,3,03,14,17,22,02,09,19,06,,,,,1.67,0.95,1.37*0E
$GPGSV,4,1,13,17,66,033,42,28,63,206,,19,56,340,39,06,48,286,42*73
$GPGSV,4,2,13,14,47,184,17,50,45,139,,193,42,134,,03,34,046,29*49
$GPGSV,4,3,13,02,18,267,40,09,16,132,23,04,15,097,,22,08,041,18*75
$GPGSV,4,4,13,01,08,060,*44
$GPRMC,074119.000,A,3110.0150,N,12124.0417,E,0.00,0.00,150521,,,A*67
$GPVTG,0.00,T,,M,0.00,N,0.0,K,A*0D
$GPGGA,074120.000,3110.0150,N,12124.0418,E,1,08,0.95,33.6,M,8.0,M,,0000*68
$GPGSA,A,3,03,14,17,22,02,09,19,06,,,,,1.67,0.95,1.37*0E
$GPGSV,4,1,13,17,66,033,42,28,63,206,,19,56,340,39,06,48,286,42*73
$GPGSV,4,2,13,14,47,184,17,50,45,139,,193,42,134,,03,34,046,28*48
$GPGSV,4,3,13,02,18,267,40,09,16,132,23,04,15,097,,22,08,041,18*75
$GPGSV,4,4,13,01,08,060,*44
$GPRMC,074120.000,A,3110.0150,N,12124.0418,E,0.00,0.00,150521,,,A*62
$GPVTG,0.00,T,,M,0.00,N,0.0,K,A*0D
$GPGGA,074121.000,3110.0150,N,12124.0418,E,1,08,0.95,33.6,M,8.0,M,,0000*69
$GPGSA,A,3,03,14,17,22,02,09,19,06,,,,,1.67,0.95,1.37*0E
$GPGSV,4,1,13,17,66,033,42,28,63,206,,19,56,340,39,06,48,286,42*73
$GPGSV,4,2,13,14,47,184,17,50,45,139,,193,42,134,,03,34,046,28*48
$GPGSV,4,3,13,02,18,267,40,09,16,132,23,04,15,097,,22,08,041,18*75
$GPGSV,4,4,13,01,08,060,*44
$GPRMC,074121.000,A,3110.0150,N,12124.0418,E,0.00,0.00,150521,,,A*63
$GPVTG,0.00,T,,M,0.00,N,0.0,K,A*0D
$GPGGA,074122.000,3110.0150,N,12124.0419,E,1,08,0.95,33.6,M,8.0,M,,0000*6B
$GPGSA,A,3,03,14,17,22,02,09,19,06,,,,,1.67,0.95,1.37*0E
$GPGSV,4,1,13,17,66,033,42,28,63,206,,19,56,340,39,06,48,286,42*73
$GPGSV,4,2,13,14,47,184,17,50,45,139,,193,42,134,,03,34,046,28*48
$GPGSV,4,3,13,02,18,267,40,09,16,132,24,04,15,097,,22,08,041,18*72
$GPGSV,4,4,13,01,08,060,*44
$GPRMC,074122.000,A,3110.0150,N,12124.0419,E,0.00,0.00,150521,,,A*61
$GPVTG,0.00,T,,M,0.00,N,0.0,K,A*0D
$GPGGA,074123.000,3110.0150,N,12124.0420,E,1,08,0.95,33.6,M,8.0,M,,0000*60
$GPGSA,A,3,03,14,17,22,02,09,19,06,,,,,1.67,0.95,1.37*0E
$GPGSV,4,1,13,17,66,033,42,28,63,206,,19,56,340,39,06,48,286,42*73
$GPGSV,4,2,13,14,47,184,17,50,45,139,,193,42,134,,03,34,046,28*48
$GPGSV,4,3,13,02,18,267,40,09,16,132,24,04,15,097,,22,08,041,18*72
$GPGSV,4,4,13,01,08,060,*44
$GPRMC,074123.000,A,3110.0150,N,12124.0420,E,0.00,0.00,150521,,,A*6A
$GPVTG,0.00,T,,M,0.00,N,0.0,K,A*0D
$GPGGA,074124.000,3110.0150,N,12124.0420,E,1,08,0.95,33.6,M,8.0,M,,0000*67
$GPGSA,A,3,03,14,17,22,02,09,19,06,,,,,1.67,0.95,1.37*0E
$GPGSV,4,1,13,17,66,033,42,28,63,206,,19,56,340,39,06,48,286,42*73
$GPGSV,4,2,13,14,47,184,16,50,45,139,,193,42,134,,03,34,046,28*49
$GPGSV,4,3,13,02,18,267,40,09,16,132,24,04,15,097,,22,08,041,18*72
$GPGSV,4,4,13,01,08,060,*44
$GPRMC,074124.000,A,3110.0150,N,12124.0420,E,0.00,0.00,150521,,,A*6D
$GPVTG,0.00,T,,M,0.00,N,0.0,K,A*0D
$GPGGA,074125.000,3110.0149,N,12124.0421,E,1,08,0.95,33.6,M,8.0,M,,0000*6F
$GPGSA,A,3,03,14,17,22,02,09,19,06,,,,,1.67,0.95,1.37*0E
$GPGSV,4,1,13,17,66,033,42,28,63,206,,19,56,340,39,06,48,286,42*73
$GPGSV,4,2,13,14,47,184,16,50,45,139,,193,42,134,,03,34,046,29*48
$GPGSV,4,3,13,02,18,267,40,09,16,132,24,04,15,097,,22,08,041,18*72
$GPGSV,4,4,13,01,08,060,*44
$GPRMC,074125.000,A,3110.0149,N,12124.0421,E,0.00,0.00,150521,,,A*65
$GPVTG,0.00,T,,M,0.00,N,0.0,K,A*0D
$GPGGA,074126.000,3110.0150,N,12124.0421,E,1,08,0.95,33.5,M,8.0,M,,0000*67
$GPGSA,A,3,03,14,17,22,02,09,19,06,,,,,1.67,0.95,1.37*0E
$GPGSV,4,1,13,17,66,033,42,28,63,206,,19,56,340,39,06,48,286,42*73
$GPGSV,4,2,13,14,47,184,16,50,45,139,,193,42,134,,03,34,046,30*40
$GPGSV,4,3,13,02,18,267,40,09,16,132,24,04,15,097,,22,08,041,18*72
$GPGSV,4,4,13,01,08,060,*44
$GPRMC,074126.000,A,3110.0150,N,12124.0421,E,0.00,0.00,150521,,,A*6E
$GPVTG,0.00,T,,M,0.00,N,0.0,K,A*0D
$GPGGA,074127.000,3110.0150,N,12124.0421,E,1,09,0.92,33.5,M,8.0,M,,0000*60
$GPGSA,A,3,28,03,14,17,22,02,09,19,06,,,,1.58,0.92,1.28*01
$GPGSV,4,1,13,17,66,033,42,28,63,206,19,19,56,340,39,06,48,286,42*7B
$GPGSV,4,2,13,14,47,184,16,193,42,134,,03,34,046,30,44,20,250,*4A
$GPGSV,4,3,13,02,18,267,40,09,16,132,23,04,15,097,,22,08,041,17*7A
$GPGSV,4,4,13,01,08,060,*44
$GPRMC,074127.000,A,3110.0150,N,12124.0421,E,0.00,0.00,150521,,,A*6F
$GPVTG,0.00,T,,M,0.00,N,0.0,K,A*0D
$GPGGA,074128.000,3110.0150,N,12124.0420,E,1,10,0.88,33.5,M,8.0,M,,0000*6D
$GPGSA,A,3,28,03,14,17,22,04,02,09,19,06,,,1.53,0.88,1.25*08
$GPGSV,4,1,13,17,66,033,42,28,63,206,20,19,56,340,39,06,48,286,42*71
$GPGSV,4,2,13,14,47,184,16,193,42,134,,03,34,046,30,44,20,250,*4A
$GPGSV,4,3,13,02,18,267,40,09,16,132,23,04,15,097,18,22,08,041,17*73
$GPGSV,4,4,13,01,08,060,*44
$GPRMC,074128.000,A,3110.0150,N,12124.0420,E,0.00,0.00,150521,,,A*61
$GPVTG,0.00,T,,M,0.00,N,0.0,K,A*0D
$GPGGA,074129.000,3110.0150,N,12124.0420,E,1,10,0.88,33.5,M,8.0,M,,0000*6C
$GPGSA,A,3,28,03,14,17,22,04,02,09,19,06,,,1.53,0.88,1.25*08
$GPGSV,4,1,13,17,66,033,42,28,63,206,19,19,56,340,39,06,48,286,42*7B
$GPGSV,4,2,13,14,47,184,16,193,42,134,,03,34,046,31,44,20,250,*4B
$GPGSV,4,3,13,02,18,267,40,09,16,132,23,04,15,097,17,22,08,041,17*7C
$GPGSV,4,4,13,01,08,060,*44
$GPRMC,074129.000,A,3110.0150,N,12124.0420,E,0.00,0.00,150521,,,A*60
$GPVTG,0.00,T,,M,0.00,N,0.0,K,A*0D
