$GPGGA,072210.297,,,,,0,03,,,M,,M,,0000*71                                   
$GPGSA,A,1,,,,,,,,,,,,,,,*1E                                                 
$GPGSV,2,1,05,23,,,40,10,,,43,05,,,23,15,,,32*7D                             
$GPGSV,2,2,05,24,,,38*71                                                     
$GPRMC,072210.297,V,,,,,0.00,0.00,280921,,,N*47                              
$GPVTG,0.00,T,,M,0.00,N,0.0,K,N*02                          
$GPGGA,072211.298,,,,,0,03,,,M,,M,,0000*7F                  
$GPGSA,A,1,,,,,,,,,,,,,,,*1E                                
$GPGSV,2,1,05,23,,,40,10,,,43,05,,,22,15,,,33*7D            
$GPGSV,2,2,05,24,,,38*71                                    
$GPRMC,072211.298,V,,,,,0.00,0.00,280921,,,N*49             
$GPVTG,0.00,T,,M,0.00,N,0.0,K,N*02
$GPGGA,072212.085,,,,,0,03,,,M,,M,,0000*72
$GPGSA,A,1,,,,,,,,,,,,,,,*1E
$GPGSV,3,1,09,23,71,343,39,24,68,046,37,10,36,320,43,15,33,064,33*71            
$GPGSV,3,2,09,12,22,138,,25,13,167,,13,05,067,,193,,,*70                        
$GPGSV,3,3,09,05,,,21*76                                                        
$GPRMC,072212.085,V,,,,,0.00,0.00,280921,,,N*44                                 
$GPVTG,0.00,T,,M,0.00,N,0.0,K,N*02                                              
$GPGGA,072214.000,,,,,0,03,,,M,,M,,0000*79                                      
$GPGSA,A,1,,,,,,,,,,,,,,,*1E                                                    
$GPGSV,3,1,09,23,71,343,39,24,68,046,37,10,36,320,43,15,33,064,33*71            
$GPGSV,3,2,09,12,22,138,,25,13,167,,13,05,067,,193,,,*70                        
$GPGSV,3,3,09,05,,,20*77                                                        
$GPRMC,072214.000,V,,,,,0.00,0.00,280921,,,N*4F                                 
$GPVTG,0.00,T,,M,0.00,N,0.0,K,N*02                                              
$GPGGA,072215.000,3110.0851,N,12124.0620,E,1,03,5.97,142.2,M,8.0,M,,0000*55     
$GPGSA,A,2,23,10,15,,,,,,,,,,6.05,5.97,1.00*0E                                  
$GPGSV,3,1,09,23,71,343,39,24,68,046,37,10,36,320,43,15,33,064,33*71            
$GPGSV,3,2,09,12,22,138,,25,13,167,,13,05,067,,193,,,*70                        
$GPGSV,3,3,09,05,,,19*7D                                                        
$GPRMC,072215.000,A,3110.0851,N,12124.0620,E,0.00,0.00,280921,,,A*62            
$GPVTG,0.00,T,,M,0.00,N,0.0,K,A*0D                                              
$GPGGA,072216.000,3110.0835,N,12124.0615,E,1,03,5.97,142.2,M,8.0,M,,0000*52     
$GPGSA,A,2,23,10,15,,,,,,,,,,6.06,5.97,1.00*0D                                  
$GPGSV,2,1,05,23,,,40,10,,,43,05,,,22,15,,,33*7D            
$GPGSV,3,2,09,12,22,138,,25,13,167,,13,05,067,,193,,,*70                        
$GPGSV,3,3,09,05,,,19*7D                                                        
$GPRMC,072216.000,A,3110.0835,N,12124.0615,E,0.00,0.00,280921,,,A*65            
$GPVTG,0.00,T,,M,0.00,N,0.0,K,A*0D                                              
$GPGGA,072217.000,3110.0818,N,12124.0607,E,1,03,5.97,142.1,M,8.0,M,,0000*5C     
$GPGSA,A,2,23,10,15,,,,,,,,,,6.05,5.97,1.00*0E                                  
$GPGSV,3,1,09,23,71,343,39,24,68,046,37,10,36,320,43,15,33,064,33*71            
$GPGSV,3,2,09,12,22,138,,25,13,167,,13,05,067,,193,,,*70                        
$GPGSV,3,3,09,05,,,19*7D                                                        
$GPRMC,072217.000,A,3110.0818,N,12124.0607,E,0.00,0.00,280921,,,A*68            
$GPVTG,0.00,T,,M,0.00,N,0.0,K,A*0D                                              
$GPGGA,072218.000,3110.0808,N,12124.0603,E,1,03,5.97,142.2,M,8.0,M,,0000*55     
$GPGSA,A,2,23,10,15,,,,,,,,,,6.05,5.97,1.00*0E                                  
$GPGSV,3,1,09,23,71,343,39,24,68,046,37,10,36,320,43,15,33,064,33*71            
$GPGSV,3,2,09,12,22,138,,25,13,167,,13,05,067,,193,,,*70                        
$GPGSV,3,3,09,05,,,20*77                                                        
$GPRMC,072218.000,A,3110.0808,N,12124.0603,E,0.00,0.00,280921,,,A*62            
$GPVTG,0.00,T,,M,0.00,N,0.0,K,A*0D                                              
$GPGGA,072218.211,3110.0805,N,12124.0601,E,1,03,5.97,142.2,M,8.0,M,,0000*58     
$GPGSA,A,2,23,10,15,,,,,,,,,,6.05,5.97,1.00*0E                                  
$GPGSV,3,1,09,23,71,343,39,24,68,046,36,10,36,320,43,15,33,064,33*70            
$GPGSV,3,2,09,12,22,138,,25,13,167,,13,05,067,,193,,,*70                        
$GPGSV,3,3,09,05,,,21*76                                                        
$GPRMC,072218.211,A,3110.0805,N,12124.0601,E,0.00,0.00,280921,,,A*6F            
$GPVTG,0.00,T,,M,0.00,N,0.0,K,A*0D                                              
$GPGGA,072220.000,3110.0807,N,12124.0602,E,1,03,5.96,142.2,M,8.0,M,,0000*51     
$GPGSA,A,2,23,10,15,,,,,,,,,,6.04,5.96,1.00*0E                                  
$GPGSV,3,1,09,23,71,343,39,24,68,046,36,10,36,320,44,15,33,064,33*77            
$GPGSV,3,2,09,12,22,138,,25,13,167,,13,05,067,,193,,,*70                        
$GPGSV,3,3,09,05,,,22*75                                                        
$GPRMC,072220.000,A,3110.0807,N,12124.0602,E,0.00,0.00,280921,,,A*67            
$GPVTG,0.00,T,,M,0.00,N,0.0,K,A*0D                                              
$GPGGA,072221.000,3110.0808,N,12124.0602,E,1,03,5.96,142.2,M,8.0,M,,0000*5F     
$GPGSA,A,2,23,10,15,,,,,,,,,,6.05,5.96,1.00*0F                                  
$GPGSV,3,1,09,23,71,343,39,24,68,046,36,10,36,320,44,15,33,064,33*77            
$GPGSV,3,2,09,12,22,138,,25,13,167,,13,05,067,,193,,,*70                        
$GPGSV,3,3,09,05,,,23*74                                                        
$GPRMC,072221.000,A,3110.0808,N,12124.0602,E,0.00,0.00,280921,,,A*69            
$GPVTG,0.00,T,,M,0.00,N,0.0,K,A*0D                                              
$GPGGA,072222.000,3110.0809,N,12124.0603,E,1,03,5.96,142.1,M,8.0,M,,0000*5F     
$GPGSA,A,2,23,10,15,,,,,,,,,,6.04,5.96,1.00*0E                                  
$GPGSV,3,1,10,23,71,343,39,24,68,046,36,10,36,320,44,15,33,064,33*7F            
$GPGSV,3,2,10,12,22,138,,25,13,167,,13,05,067,,193,,,*78                        
$GPGSV,3,3,10,05,,,23,32,,,31*7F                                                
$GPRMC,072222.000,A,3110.0809,N,12124.0603,E,0.00,0.00,280921,,,A*6A            
$GPVTG,0.00,T,,M,0.00,N,0.0,K,A*0D                                              
$GPGGA,072223.000,3110.0810,N,12124.0603,E,1,03,5.95,142.1,M,8.0,M,,0000*55     
$GPGSA,A,2,23,10,15,,,,,,,,,,6.04,5.95,1.00*0D                                  
$GPGSV,3,1,10,23,71,343,39,24,68,046,36,10,36,320,44,15,33,064,33*7F            
$GPGSV,3,2,10,12,22,138,,25,13,167,,13,05,067,,193,,,*78                        
$GPGSV,3,3,10,05,,,23,32,,,30*7E                                                
$GPRMC,072223.000,A,3110.0810,N,12124.0603,E,0.00,0.00,280921,,,A*63            
$GPVTG,0.00,T,,M,0.00,N,0.0,K,A*0D                                              
$GPGGA,072224.000,3110.0811,N,12124.0604,E,1,03,5.96,142.1,M,8.0,M,,0000*57     
$GPGSA,A,2,23,10,15,,,,,,,,,,6.04,5.96,1.00*0E                                  
$GPGSV,3,1,10,23,71,343,39,24,68,046,36,10,36,320,44,15,33,064,33*7F            
$GPGSV,3,2,10,12,22,138,,25,13,167,,13,05,067,,193,,,*78                        
$GPGSV,3,3,10,05,,,24,32,,,32*7B                                                
$GPRMC,072224.000,A,3110.0811,N,12124.0604,E,0.00,0.00,280921,,,A*62            
$GPVTG,0.00,T,,M,0.00,N,0.0,K,A*0D                                              
$GPGGA,072224.210,3110.0823,N,12124.0605,E,1,04,5.23,141.9,M,8.0,M,,0000*56     
$GPGSA,A,3,23,10,15,24,,,,,,,,,5.32,5.23,1.00*01                                
$GPGSV,3,1,11,23,71,343,39,24,68,046,36,42,48,146,,10,36,320,44*71              
$GPGSV,3,2,11,15,33,064,33,12,22,138,,25,13,167,,13,05,067,*74                  
$GPGSV,3,3,11,193,,,,05,,,24,32,,,30*43                                         
$GPRMC,072224.210,A,3110.0823,N,12124.0605,E,0.00,0.00,280921,,,A*61            
$GPVTG,0.00,T,,M,0.00,N,0.0,K,A*0D                                              
$GPGGA,072226.000,3110.0836,N,12124.0607,E,1,04,5.23,141.8,M,8.0,M,,0000*50     
$GPGSA,A,3,23,10,15,24,,,,,,,,,5.32,5.23,1.00*01                                
$GPGSV,3,1,11,23,71,343,39,24,68,046,36,42,48,146,,10,36,320,44*71              
$GPGSV,3,2,11,15,33,064,33,12,22,138,,25,13,167,,13,05,067,*74                  
$GPGSV,3,3,11,193,,,,05,,,24,32,,,31*42                                         
$GPRMC,072226.000,A,3110.0836,N,12124.0607,E,0.00,0.00,280921,,,A*66            
$GPVTG,0.00,T,,M,0.00,N,0.0,K,A*0D                                              
$GPGGA,072227.000,3110.0849,N,12124.0609,E,1,04,5.23,141.6,M,8.0,M,,0000*59     
$GPGSA,A,3,23,10,15,24,,,,,,,,,5.32,5.23,1.00*01                                
$GPGSV,3,1,11,23,71,343,39,24,68,046,36,42,48,146,,10,36,320,44*71              
$GPGSV,3,2,11,15,33,064,33,12,22,138,,25,13,167,,13,05,067,*74                  
$GPGSV,3,3,11,193,,,,05,,,25,32,,,32*40                                         
$GPRMC,072227.000,A,3110.0849,N,12124.0609,E,0.00,0.00,280921,,,A*61            
$GPVTG,0.00,T,,M,0.00,N,0.0,K,A*0D                                              
$GPGGA,072228.000,3110.0860,N,12124.0611,E,1,04,5.23,141.5,M,8.0,M,,0000*57     
$GPGSA,A,3,23,10,15,24,,,,,,,,,5.33,5.23,1.00*00                                
$GPGSV,3,1,11,23,71,343,39,24,68,046,36,42,48,146,,10,36,320,44*71              
$GPGSV,3,2,11,15,33,064,33,12,22,138,,25,13,167,,13,05,067,*74                  
$GPGSV,3,3,11,193,,,,05,,,25,32,,,32*40                                         
$GPRMC,072228.000,A,3110.0860,N,12124.0611,E,0.00,0.00,280921,,,A*6C            
$GPVTG,0.00,T,,M,0.00,N,0.0,K,A*0D                                              
$GPGGA,072229.000,3110.0873,N,12124.0613,E,1,04,5.23,141.4,M,8.0,M,,0000*57     
$GPGSA,A,3,23,10,15,24,,,,,,,,,5.33,5.23,1.00*00                                
$GPGSV,3,1,11,23,71,343,39,24,68,046,36,42,48,146,,10,36,320,44*71              
$GPGSV,3,2,11,15,33,064,33,12,22,138,,25,13,167,,13,05,067,*74                  
$GPGSV,3,3,11,193,,,,05,,,25,32,,,31*43                                         
$GPRMC,072229.000,A,3110.0873,N,12124.0613,E,0.00,0.00,280921,,,A*6D            
$GPVTG,0.00,T,,M,0.00,N,0.0,K,A*0D                                              
$GPGGA,072230.000,3110.0884,N,12124.0615,E,1,04,5.23,141.2,M,8.0,M,,0000*57     
$GPGSA,A,3,23,10,15,24,,,,,,,,,5.33,5.23,1.00*00                                
$GPGSV,3,1,11,23,71,343,39,24,68,046,37,42,48,146,,10,36,320,44*70              
$GPGSV,3,2,11,15,33,064,33,12,22,138,,25,13,167,,13,05,067,*74                  
$GPGSV,3,3,11,193,,,,05,,,25,32,,,31*43                                         
$GPRMC,072230.000,A,3110.0884,N,12124.0615,E,0.00,0.00,280921,,,A*6B            
$GPVTG,0.00,T,,M,0.00,N,0.0,K,A*0D                                              
$GPGGA,072231.000,3110.0894,N,12124.0617,E,1,04,5.23,141.1,M,8.0,M,,0000*56     
$GPGSA,A,3,23,10,15,24,,,,,,,,,5.33,5.23,1.00*00                                
$GPGSV,3,1,11,23,71,343,39,24,68,046,37,42,48,146,,10,36,320,44*70              
$GPGSV,3,2,11,15,33,064,33,12,22,138,,25,13,167,,13,05,067,*74                  
$GPGSV,3,3,11,193,,,,05,,,25,32,,,31*43                                         
$GPRMC,072231.000,A,3110.0894,N,12124.0617,E,0.00,0.00,280921,,,A*69            
$GPVTG,0.00,T,,M,0.00,N,0.0,K,A*0D                                              
$GPGGA,072232.000,3110.0904,N,12124.0618,E,1,04,5.23,141.0,M,8.0,M,,0000*53     
$GPGSA,A,3,23,10,15,24,,,,,,,,,5.33,5.23,1.00*00                                
$GPGSV,3,1,11,23,71,343,39,24,68,046,37,42,48,146,,10,36,320,44*70              
$GPGSV,3,2,11,15,33,064,33,12,22,138,23,25,13,167,,13,05,067,*75                
$GPGSV,3,3,11,193,,,,05,,,25,32,,,30*42                                         
$GPRMC,072232.000,A,3110.0904,N,12124.0618,E,0.00,0.00,280921,,,A*6D            
$GPVTG,0.00,T,,M,0.00,N,0.0,K,A*0D                                              
$GPGGA,072233.000,3110.0911,N,12124.0619,E,1,04,5.24,140.8,M,8.0,M,,0000*59     
$GPGSA,A,3,23,10,15,24,,,,,,,,,5.33,5.24,1.00*07                                
$GPGSV,3,1,11,23,71,343,40,24,68,046,37,42,48,146,,10,36,320,44*7E              
$GPGSV,3,2,11,15,33,064,33,12,22,138,22,25,13,167,,13,05,067,*74                
$GPGSV,3,3,11,193,,,,05,,,25,32,,,30*42                                         
$GPRMC,072233.000,A,3110.0911,N,12124.0619,E,0.00,0.00,280921,,,A*69            
$GPVTG,0.00,T,,M,0.00,N,0.0,K,A*0D                                              
$GPGGA,072234.000,3110.0785,N,12124.0582,E,1,04,5.23,132.5,M,8.0,M,,0000*53     
$GPGSA,A,3,23,10,15,24,,,,,,,,,5.33,5.23,1.00*00                                
$GPGSV,3,1,11,23,71,343,40,24,68,046,37,50,45,139,,10,36,320,44*78              
$GPGSV,3,2,11,15,33,064,33,12,22,138,23,25,13,167,,13,05,067,*75                
$GPGSV,3,3,11,193,,,,05,,,26,32,,,30*41                                         
$GPRMC,072234.000,A,3110.0785,N,12124.0582,E,0.00,0.00,280921,,,A*6C            
$GPVTG,0.00,T,,M,0.00,N,0.0,K,A*0D                                              
$GPGGA,072235.000,3110.0795,N,12124.0584,E,1,04,5.24,132.4,M,8.0,M,,0000*53     
$GPGSA,A,3,23,10,15,24,,,,,,,,,5.33,5.24,1.00*07                                
$GPGSV,3,1,11,23,71,343,40,24,68,046,37,50,45,139,,10,36,320,44*78              
$GPGSV,3,2,11,15,33,064,33,12,22,138,20,25,13,167,,13,05,067,*76                
$GPGSV,3,3,11,193,,,,05,,,27,32,,,30*40                                         
$GPRMC,072235.000,A,3110.0795,N,12124.0584,E,0.00,0.00,280921,,,A*6A            
$GPVTG,0.00,T,,M,0.00,N,0.0,K,A*0D                                              
$GPGGA,072236.000,3110.0808,N,12124.0587,E,1,04,5.24,132.3,M,8.0,M,,0000*5F     
$GPGSA,A,3,23,10,15,24,,,,,,,,,5.33,5.24,1.00*07                                
$GPGSV,3,1,11,23,71,343,40,24,68,046,37,50,45,139,,10,36,320,44*78              
$GPGSV,3,2,11,15,33,064,33,12,22,138,22,25,13,167,,13,05,067,*74                
$GPGSV,3,3,11,193,,,,05,,,26,32,,,30*41                                         
$GPRMC,072236.000,A,3110.0808,N,12124.0587,E,0.00,0.00,280921,,,A*61            
$GPVTG,0.00,T,,M,0.00,N,0.0,K,A*0D                                              
$GPGGA,072237.000,3110.0820,N,12124.0590,E,1,04,49.13,132.1,M,8.0,M,,0000*6C    
$GPGSA,A,3,23,10,15,24,,,,,,,,,56.41,49.13,27.73*38                             
$GPGSV,3,1,11,23,71,343,40,24,68,046,37,50,45,139,,10,36,320,44*78              
$GPGSV,3,2,11,15,33,064,34,12,22,138,22,25,13,167,,13,05,067,*73                
$GPGSV,3,3,11,193,,,,05,,,26,32,,,30*41                                         
$GPRMC,072237.000,A,3110.0820,N,12124.0590,E,0.00,0.00,280921,,,A*6C            
$GPVTG,0.00,T,,M,0.00,N,0.0,K,A*0D                                              
$GPGGA,072238.000,3110.0833,N,12124.0593,E,1,04,48.83,132.1,M,8.0,M,,0000*6A    
$GPGSA,A,3,23,10,15,24,,,,,,,,,56.07,48.83,27.56*35                             
$GPGSV,3,1,11,23,71,343,40,24,68,046,37,50,45,139,,10,36,320,44*78              
$GPGSV,3,2,11,15,33,064,34,12,22,138,23,25,13,167,,13,05,067,*72                
$GPGSV,3,3,11,193,,,24,05,,,27,32,,,31*47                                       
$GPRMC,072238.000,A,3110.0833,N,12124.0593,E,0.00,0.00,280921,,,A*62            
$GPVTG,0.00,T,,M,0.00,N,0.0,K,A*0D                                              
$GPGGA,072239.000,3110.0846,N,12124.0597,E,1,04,48.56,132.0,M,8.0,M,,0000*64    
$GPGSA,A,3,23,10,15,24,,,,,,,,,55.75,48.56,27.40*3C                             
$GPGSV,3,1,11,23,71,343,41,24,68,046,37,50,45,139,,10,36,320,44*79              
$GPGSV,3,2,11,15,33,064,34,12,22,138,23,25,13,167,,13,05,067,*72                
$GPGSV,3,3,11,193,,,26,05,,,27,32,,,31*45                                       
$GPRMC,072239.000,A,3110.0846,N,12124.0597,E,0.00,0.00,280921,,,A*65            
$GPVTG,0.00,T,,M,0.00,N,0.0,K,A*0D                                              
$GPGGA,072240.000,3110.0856,N,12124.0599,E,1,04,48.28,131.9,M,8.0,M,,0000*66    
$GPGSA,A,3,23,10,15,24,,,,,,,,,55.43,48.28,27.24*32                             
$GPGSV,3,1,11,23,71,343,41,24,68,046,37,50,45,139,,10,36,320,44*79              
$GPGSV,3,2,11,15,33,064,34,12,22,138,23,25,13,167,,13,05,067,*72                
$GPGSV,3,3,11,193,,,27,05,,,27,32,,,31*44                                       
$GPRMC,072240.000,A,3110.0856,N,12124.0599,E,0.00,0.00,280921,,,A*64            
$GPVTG,0.00,T,,M,0.00,N,0.0,K,A*0D                                              
$GPGGA,072241.000,3110.0863,N,12124.0601,E,1,04,47.97,131.8,M,8.0,M,,0000*69    
$GPGSA,A,3,23,10,15,24,,,,,,,,,55.08,47.97,27.06*36                             
$GPGSV,3,1,11,23,71,343,41,24,68,046,36,50,45,139,,10,36,320,44*78              
$GPGSV,3,2,11,15,33,064,34,12,22,138,23,25,13,167,,13,05,067,*72                
$GPGSV,3,3,11,193,,,26,05,,,27,32,,,31*45                                       
$GPRMC,072241.000,A,3110.0863,N,12124.0601,E,0.00,0.00,280921,,,A*61            
$GPVTG,0.00,T,,M,0.00,N,0.0,K,A*0D                                              
$GPGGA,072242.000,3110.0867,N,12124.0603,E,1,04,5.24,131.8,M,8.0,M,,0000*52     
$GPGSA,A,3,23,10,15,24,,,,,,,,,5.34,5.24,1.00*00                                
$GPGSV,3,1,11,23,71,343,41,24,68,046,36,50,45,139,,10,36,320,44*78              
$GPGSV,3,2,11,15,33,064,34,12,22,138,23,25,13,167,,13,05,067,*72                
$GPGSV,3,3,11,193,,,27,05,,,27,32,,,31*44                                       
$GPRMC,072242.000,A,3110.0867,N,12124.0603,E,0.00,0.00,280921,,,A*64            
$GPVTG,0.00,T,,M,0.00,N,0.0,K,A*0D                                              
$GPGGA,072243.000,3110.0872,N,12124.0605,E,1,04,5.24,131.7,M,8.0,M,,0000*5E     
$GPGSA,A,3,23,10,15,24,,,,,,,,,5.34,5.24,1.00*00                                
$GPGSV,3,1,11,23,71,343,41,24,68,046,36,10,36,320,44,15,33,064,34*76            
$GPGSV,3,2,11,12,22,138,23,44,20,250,,25,13,167,,13,05,067,*76                  
$GPGSV,3,3,11,193,,,27,05,,,27,32,,,31*44                                       
$GPRMC,072243.000,A,3110.0872,N,12124.0605,E,0.00,0.00,280921,,,A*67            
$GPVTG,0.00,T,,M,0.00,N,0.0,K,A*0D                                              
$GPGGA,072244.000,3110.0875,N,12124.0607,E,1,04,5.25,131.6,M,8.0,M,,0000*5C     
$GPGSA,A,3,23,10,15,24,,,,,,,,,5.34,5.25,1.00*01                                
$GPGSV,3,1,11,23,71,343,41,24,68,046,36,10,36,320,44,15,33,064,34*76            
$GPGSV,3,2,11,12,22,138,23,44,20,250,,25,13,167,,13,05,067,*76                  
$GPGSV,3,3,11,193,,,27,05,,,27,32,,,31*44                                       
$GPRMC,072244.000,A,3110.0875,N,12124.0607,E,0.00,0.00,280921,,,A*65            
$GPVTG,0.00,T,,M,0.00,N,0.0,K,A*0D                                              
$GPGGA,072245.000,3110.0880,N,12124.0609,E,1,04,5.25,131.5,M,8.0,M,,0000*5A     
$GPGSA,A,3,23,10,15,24,,,,,,,,,5.34,5.25,1.00*01                                
$GPGSV,3,1,11,23,71,343,41,24,68,046,36,10,36,320,44,15,33,064,33*71            
$GPGSV,3,2,11,12,22,138,22,44,20,250,,25,13,167,,13,05,067,*77                  
$GPGSV,3,3,11,193,,,27,05,,,27,32,,,32*47                                       
$GPRMC,072245.000,A,3110.0880,N,12124.0609,E,0.00,0.00,280921,,,A*60            
$GPVTG,0.00,T,,M,0.00,N,0.0,K,A*0D                                              
$GPGGA,072246.000,3110.0888,N,12124.0612,E,1,04,5.25,131.4,M,8.0,M,,0000*5A     
$GPGSA,A,3,23,10,15,24,,,,,,,,,5.34,5.25,1.00*01                                
$GPGSV,3,1,11,23,71,343,41,24,68,046,36,10,36,320,44,15,33,064,33*71            
$GPGSV,3,2,11,12,22,138,22,44,20,250,,25,13,167,,13,05,067,*77                  
$GPGSV,3,3,11,193,,,26,05,,,27,32,,,33*47                                       
$GPRMC,072246.000,A,3110.0888,N,12124.0612,E,0.00,0.00,280921,,,A*61            
$GPVTG,0.00,T,,M,0.00,N,0.0,K,A*0D                                              
$GPGGA,072247.000,3110.0890,N,12124.0614,E,1,04,5.25,131.4,M,8.0,M,,0000*54     
$GPGSA,A,3,23,10,15,24,,,,,,,,,5.34,5.25,1.00*01                                
$GPGSV,3,1,11,23,71,343,30,24,68,046,27,10,36,320,44,15,33,064,33*77            
$GPGSV,3,2,11,12,22,138,21,44,20,250,,25,13,167,,13,05,067,*74                  
$GPGSV,3,3,11,193,,,19,05,,,25,32,,,33*49                                       
$GPRMC,072247.000,A,3110.0890,N,12124.0614,E,0.00,0.00,280921,,,A*6F            
$GPVTG,0.00,T,,M,0.00,N,0.0,K,A*0D                                              
$GPGGA,072248.000,3110.0890,N,12124.0614,E,1,04,46.10,131.4,M,8.0,M,,0000*6A    
$GPGSA,A,3,23,10,15,24,,,,,,,,,52.91,46.10,25.97*35                             
$GPGSV,3,1,11,23,71,343,30,24,68,046,26,10,36,320,36,15,33,064,32*72            
$GPGSV,3,2,11,12,22,138,20,44,20,250,,25,13,167,,13,05,067,*75                  
$GPGSV,3,3,11,193,,,19,05,,,23,32,,,33*4F                                       
$GPRMC,072248.000,A,3110.0890,N,12124.0614,E,0.00,0.00,280921,,,A*60            
$GPVTG,0.00,T,,M,0.00,N,0.0,K,A*0D                                              
$GPGGA,072249.000,3110.0890,N,12124.0614,E,1,04,45.79,131.4,M,8.0,M,,0000*67    
$GPGSA,A,3,23,10,15,24,,,,,,,,,52.56,45.79,25.80*34                             
$GPGSV,3,1,11,23,71,343,29,24,68,046,25,10,36,320,36,15,33,064,30*7B            
$GPGSV,3,2,11,12,22,138,19,44,20,250,,25,13,167,,13,05,067,*7F                  
$GPGSV,3,3,11,193,,,18,05,,,22,32,,,34*48                                       
$GPRMC,072249.000,A,3110.0890,N,12124.0614,E,0.00,0.00,280921,,,A*61            
$GPVTG,0.00,T,,M,0.00,N,0.0,K,A*0D                                              
$GPGGA,072250.000,3110.0891,N,12124.0614,E,1,04,45.55,131.4,M,8.0,M,,0000*60    
$GPGSA,A,3,23,10,15,24,,,,,,,,,52.28,45.55,25.66*3B                             
$GPGSV,3,1,11,23,71,343,20,24,68,046,17,10,36,320,26,15,33,064,18*78            
$GPGSV,3,2,11,12,22,138,18,44,20,250,,25,13,167,,13,05,067,*7E                  
$GPGSV,3,3,11,193,,,17,05,,,22,32,,,32*41                                       
$GPRMC,072250.000,A,3110.0891,N,12124.0614,E,0.00,0.00,280921,,,A*68            
$GPVTG,0.00,T,,M,0.00,N,0.0,K,A*0D                                              
$GPGGA,072251.000,3110.0892,N,12124.0613,E,1,04,5.25,131.4,M,8.0,M,,0000*56     
$GPGSA,A,3,23,10,15,24,,,,,,,,,5.35,5.25,1.00*00                                
$GPGSV,3,1,11,23,71,343,20,24,68,046,16,10,36,320,27,15,33,064,18*78            
$GPGSV,3,2,11,12,22,138,18,44,20,250,,25,13,167,,13,05,067,*7E                  
$GPGSV,3,3,11,193,,,15,05,,,21,32,,,31*43                                       
$GPRMC,072251.000,A,3110.0892,N,12124.0613,E,0.00,0.00,280921,,,A*6D            
$GPVTG,0.00,T,,M,0.00,N,0.0,K,A*0D                                              
$GPGGA,072252.000,3110.0893,N,12124.0611,E,1,04,5.25,131.4,M,8.0,M,,0000*56     
$GPGSA,A,3,23,10,15,24,,,,,,,,,5.35,5.25,1.00*00                                
$GPGSV,3,1,11,23,71,343,19,24,68,046,16,10,36,320,29,15,33,064,18*7C            
$GPGSV,3,2,11,12,22,138,18,40,19,251,,25,13,167,,13,05,067,*71                  
$GPGSV,3,3,11,193,,,14,05,,,19,32,,,31*49                                       
$GPRMC,072252.000,A,3110.0893,N,12124.0611,E,0.00,0.00,280921,,,A*6D            
$GPVTG,0.00,T,,M,0.00,N,0.0,K,A*0D                                              
$GPGGA,072253.000,3110.0897,N,12124.0610,E,1,04,5.25,131.4,M,8.0,M,,0000*52     
$GPGSA,A,3,23,10,15,24,,,,,,,,,5.35,5.25,1.00*00                                
$GPGSV,3,1,11,23,71,343,19,24,68,046,14,10,36,320,31,15,33,064,18*77            
$GPGSV,3,2,11,12,22,138,17,40,19,251,,25,13,167,,13,05,067,*7E                  
$GPGSV,3,3,11,193,,,14,05,,,19,32,,,22*4B                                       
$GPRMC,072253.000,A,3110.0897,N,12124.0610,E,0.00,0.00,280921,,,A*69            
$GPVTG,0.00,T,,M,0.00,N,0.0,K,A*0D                                              
$GPGGA,072254.000,3110.0900,N,12124.0609,E,1,04,5.25,131.4,M,8.0,M,,0000*52     
$GPGSA,A,3,23,10,15,24,,,,,,,,,5.35,5.25,1.00*00                                
$GPGSV,3,1,11,23,71,343,19,24,68,046,14,10,36,320,38,15,33,064,19*7F            
$GPGSV,3,2,11,12,22,138,16,40,19,251,,25,13,167,,13,05,067,*7F                  
$GPGSV,3,3,11,193,,,14,05,,,18,32,,,37*4E                                       
$GPRMC,072254.000,A,3110.0900,N,12124.0609,E,0.00,0.00,280921,,,A*69            
$GPVTG,0.00,T,,M,0.00,N,0.0,K,A*0D                                              
$GPGGA,072255.000,3110.0903,N,12124.0607,E,1,04,5.26,131.4,M,8.0,M,,0000*5D     
$GPGSA,A,3,23,10,15,24,,,,,,,,,5.35,5.26,1.00*03                                
$GPGSV,3,1,11,23,71,343,19,24,68,046,14,10,36,320,27,15,33,064,18*70            
$GPGSV,3,2,11,12,22,138,16,40,19,251,,25,13,167,,13,05,067,*7F                  
$GPGSV,3,3,11,193,,,13,05,,,18,32,,,30*4E                                       
$GPRMC,072255.000,A,3110.0903,N,12124.0607,E,0.00,0.00,280921,,,A*65            
$GPVTG,0.00,T,,M,0.00,N,0.0,K,A*0D                                              
$GPGGA,072256.000,3110.0906,N,12124.0605,E,1,04,5.26,131.4,M,8.0,M,,0000*59     
$GPGSA,A,3,23,10,15,24,,,,,,,,,5.35,5.26,1.00*03                                
$GPGSV,3,1,11,23,71,343,18,24,68,046,15,10,36,320,19,15,33,064,18*7D            
$GPGSV,3,2,11,12,22,138,15,40,19,251,,25,13,167,,13,05,067,*7C                  
$GPGSV,3,3,11,193,,,13,05,,,20,32,,,20*44                                       
$GPRMC,072256.000,A,3110.0906,N,12124.0605,E,0.00,0.00,280921,,,A*61            
$GPVTG,0.00,T,,M,0.00,N,0.0,K,A*0D                                              
$GPGGA,072257.000,3110.0912,N,12124.0607,E,1,04,5.26,131.4,M,8.0,M,,0000*5F     
$GPGSA,A,3,23,10,15,24,,,,,,,,,5.35,5.26,1.00*03                                
$GPGSV,3,1,11,23,71,343,18,24,68,046,17,10,36,320,33,15,33,064,18*77            
$GPGSV,3,2,11,12,22,138,15,40,19,251,,25,13,167,,13,05,067,*7C                  
$GPGSV,3,3,11,193,,,13,05,,,21,32,,,22*47                                       
$GPRMC,072257.000,A,3110.0912,N,12124.0607,E,2.01,348.34,280921,,,A*6C          
$GPVTG,348.34,T,,M,2.01,N,3.7,K,A*02                                            
$GPGGA,072258.000,3110.0917,N,12124.0614,E,1,04,43.58,131.4,M,8.0,M,,0000*6C    
$GPGSA,A,3,23,10,15,24,,,,,,,,,50.00,43.58,24.52*3E                             
$GPGSV,3,1,11,23,71,343,19,24,68,046,15,10,37,320,34,15,33,064,18*72            
$GPGSV,3,2,11,12,22,138,16,40,19,251,,25,13,167,,13,05,067,*7F                  
$GPGSV,3,3,11,193,,,14,05,,,22,32,,,23*42                                       
$GPRMC,072258.000,A,3110.0917,N,12124.0614,E,0.00,348.34,280921,,,A*67          
$GPVTG,348.34,T,,M,0.00,N,0.0,K,A*05                                            
$GPGGA,072259.000,3110.0926,N,12124.0622,E,1,04,5.26,131.4,M,8.0,M,,0000*51     
$GPGSA,A,3,23,10,15,24,,,,,,,,,5.35,5.26,1.00*03                                
$GPGSV,3,1,11,23,71,343,19,24,68,046,15,10,37,320,26,15,33,064,17*7E            
$GPGSV,3,2,11,12,22,138,16,40,19,251,,25,13,167,,13,05,067,*7F                  
$GPGSV,3,3,11,193,,,14,05,,,21,32,,,23*41                                       
$GPRMC,072259.000,A,3110.0926,N,12124.0622,E,2.13,26.27,280921,,,A*58           
$GPVTG,26.27,T,,M,2.13,N,3.9,K,A*36                                             
$GPGGA,072300.000,3110.0936,N,12124.0628,E,1,04,5.26,131.4,M,8.0,M,,0000*57     
$GPGSA,A,3,23,10,15,24,,,,,,,,,5.35,5.26,1.00*03                                
$GPGSV,3,1,11,23,71,343,18,24,68,046,14,10,37,320,19,15,33,064,16*73            
$GPGSV,3,2,11,12,22,138,15,40,19,251,,25,13,167,,13,05,067,*7C                  
$GPGSV,3,3,11,193,,,14,05,,,20,32,,,22*41                                       
$GPRMC,072300.000,A,3110.0936,N,12124.0628,E,2.49,26.99,280921,,,A*54           
$GPVTG,26.99,T,,M,2.49,N,4.6,K,A*34                                             
$GPGGA,072301.000,3110.0945,N,12124.0633,E,1,04,5.26,131.4,M,8.0,M,,0000*58     
$GPGSA,A,3,23,10,15,24,,,,,,,,,5.36,5.26,1.00*00                                
$GPGSV,3,1,11,23,71,343,18,24,68,046,14,10,37,320,27,15,33,064,13*7B            
$GPGSV,3,2,11,12,22,138,15,40,19,251,,25,13,167,,13,05,067,*7C                  
$GPGSV,3,3,11,193,,,13,05,,,18,32,,,21*4E                                       
$GPRMC,072301.000,A,3110.0945,N,12124.0633,E,2.55,29.63,280921,,,A*5C           
$GPVTG,29.63,T,,M,2.55,N,4.7,K,A*32                                             
$GPGGA,072302.000,3110.0955,N,12124.0637,E,1,04,5.26,131.4,M,8.0,M,,0000*5E     
$GPGSA,A,3,23,10,15,24,,,,,,,,,5.36,5.26,1.00*00                                
$GPGSV,3,1,10,23,71,343,17,24,68,046,14,10,37,320,20,15,33,064,14*75            
$GPGSV,3,2,10,12,22,138,15,25,13,167,,13,05,067,,193,,,13*7E                    
$GPGSV,3,3,10,05,,,19,32,,,20*76                                                
$GPRMC,072302.000,A,3110.0955,N,12124.0637,E,2.87,27.48,280921,,,A*52           
$GPVTG,27.48,T,,M,2.87,N,5.3,K,A*3F                                             
$GPGGA,072303.000,3110.0966,N,12124.0641,E,1,04,5.26,131.4,M,8.0,M,,0000*5E     
$GPGSA,A,3,23,10,15,24,,,,,,,,,5.36,5.26,1.00*00                                
$GPGSV,3,1,10,23,71,343,16,24,68,046,14,10,37,320,19,15,33,065,13*78            
$GPGSV,3,2,10,12,22,138,15,25,13,167,,13,05,067,,193,,,13*7E                    
$GPGSV,3,3,10,05,,,21,32,,,18*76                                                
$GPRMC,072303.000,A,3110.0966,N,12124.0641,E,2.95,24.48,280921,,,A*52           
$GPVTG,24.48,T,,M,2.95,N,5.5,K,A*39                                             
$GPGGA,072304.000,3110.0978,N,12124.0645,E,1,04,5.26,131.4,M,8.0,M,,0000*52     
$GPGSA,A,3,23,10,15,24,,,,,,,,,5.36,5.26,1.00*00                                
$GPGSV,3,1,10,23,71,343,15,24,68,046,13,10,37,320,18,15,33,065,12*7C            
$GPGSV,3,2,10,12,22,138,14,25,13,167,,13,05,067,,193,,,12*7E                    
$GPGSV,3,3,10,05,,,22,32,,,17*7A                                                
$GPRMC,072304.000,A,3110.0978,N,12124.0645,E,3.16,21.68,280921,,,A*53           
$GPVTG,21.68,T,,M,3.16,N,5.9,K,A*38                                             
$GPGGA,072305.000,3110.0987,N,12124.0648,E,1,04,5.27,131.4,M,8.0,M,,0000*5F     
$GPGSA,A,3,23,10,15,24,,,,,,,,,5.36,5.27,1.00*01                                
$GPGSV,3,1,10,23,71,343,13,24,68,046,14,10,37,320,18,15,33,065,12*7D            
$GPGSV,3,2,10,12,22,138,14,25,13,167,,13,05,067,,193,,,*7D                      
$GPGSV,3,3,10,05,,,23,32,,,16*7A                                                
$GPRMC,072305.000,A,3110.0987,N,12124.0648,E,3.17,20.60,280921,,,A*57           
$GPVTG,20.60,T,,M,3.17,N,5.9,K,A*30                                             
$GPGGA,072306.000,3110.0996,N,12124.0652,E,1,04,5.27,131.5,M,8.0,M,,0000*56     
$GPGSA,A,3,23,10,15,24,,,,,,,,,5.36,5.27,1.00*01                                
$GPGSV,3,1,10,23,71,343,13,24,68,046,13,10,37,320,18,15,33,065,13*7B            
$GPGSV,3,2,10,12,22,138,14,25,13,167,,13,05,067,,193,,,*7D                      
$GPGSV,3,3,10,05,,,24,32,,,16*7D                                                
$GPRMC,072306.000,A,3110.0996,N,12124.0652,E,3.19,20.15,280921,,,A*53           
$GPVTG,20.15,T,,M,3.19,N,5.9,K,A*3C                                             
$GPGGA,072307.000,,,,,0,04,,,M,,M,,0000*7D                                      
$GPGSA,A,1,,,,,,,,,,,,,,,*1E                                                    
$GPGSV,3,1,10,23,71,343,16,24,68,046,16,10,37,320,18,15,33,065,15*7D            
$GPGSV,3,2,10,12,22,138,14,25,13,167,,13,05,067,,193,,,*7D                      
$GPGSV,3,3,10,05,,,24,32,,,16*7D                                                
$GPRMC,072307.000,V,,,,,0.00,20.15,280921,,,N*7A                                
$GPVTG,20.15,T,,M,0.00,N,0.0,K,N*34                                             
$GPGGA,072308.000,,,,,0,04,,,M,,M,,0000*72                                      
$GPGSA,A,1,,,,,,,,,,,,,,,*1E                                                    
$GPGSV,3,1,10,23,71,343,15,24,68,046,15,10,37,320,18,15,33,065,14*7C            
$GPGSV,3,2,10,12,22,138,14,25,13,167,,13,05,067,,193,,,*7D                      
$GPGSV,3,3,10,05,,,24,32,,,15*7E                                                
$GPRMC,072308.000,V,,,,,0.00,20.15,280921,,,N*75                                
$GPVTG,20.15,T,,M,0.00,N,0.0,K,N*34                                             
$GPGGA,072309.000,,,,,0,04,,,M,,M,,0000*73                                      
$GPGSA,A,1,,,,,,,,,,,,,,,*1E                                                    
$GPGSV,3,1,10,23,71,343,14,24,68,046,11,10,37,320,18,15,33,065,12*7F            
$GPGSV,3,2,10,12,22,138,14,25,13,167,,13,05,067,,193,,,*7D                      
$GPGSV,3,3,10,05,,,22,32,,,14*79                                                
$GPRMC,072309.000,V,,,,,0.00,20.15,280921,,,N*74                                
$GPVTG,20.15,T,,M,0.00,N,0.0,K,N*34                                             
$GPGGA,072310.000,,,,,0,04,,,M,,M,,0000*7B                                      
$GPGSA,A,1,,,,,,,,,,,,,,,*1E                                                    
$GPGSV,3,1,10,23,71,343,13,24,68,046,11,10,37,320,16,15,33,065,11*75            
$GPGSV,3,2,10,12,22,138,13,25,13,167,,13,05,067,,193,,,*7A                      
$GPGSV,3,3,10,05,,,20,32,,,15*7A                                                
$GPRMC,072310.000,V,,,,,0.00,20.15,280921,,,N*7C                                
$GPVTG,20.15,T,,M,0.00,N,0.0,K,N*34                                             
$GPGGA,072311.000,,,,,0,04,,,M,,M,,0000*7A                                      
$GPGSA,A,1,,,,,,,,,,,,,,,*1E                                                    
$GPGSV,3,1,10,23,72,343,14,24,68,046,10,10,37,320,15,15,33,065,13*71            
$GPGSV,3,2,10,12,22,138,13,25,13,167,,13,05,067,,193,,,*7A                      
$GPGSV,3,3,10,05,,,19,32,,,14*71                                                
$GPRMC,072311.000,V,,,,,0.00,20.15,280921,,,N*7D                                
$GPVTG,20.15,T,,M,0.00,N,0.0,K,N*34                                             
$GPGGA,072312.000,,,,,0,04,,,M,,M,,0000*79                                      
$GPGSA,A,1,,,,,,,,,,,,,,,*1E                                                    
$GPGSV,3,1,10,23,72,343,14,24,67,045,12,10,37,320,15,15,33,065,13*7F            
$GPGSV,3,2,10,12,22,138,13,25,13,167,,13,05,067,,193,,,*7A                      
$GPGSV,3,3,10,05,,,17,32,,,14*7F                                                
$GPRMC,072312.000,V,,,,,0.00,20.15,280921,,,N*7E                                
$GPVTG,20.15,T,,M,0.00,N,0.0,K,N*34                                             
$GPGGA,072313.000,,,,,0,04,,,M,,M,,0000*78                                      
$GPGSA,A,1,,,,,,,,,,,,,,,*1E                                                    
$GPGSV,3,1,10,23,72,343,15,24,67,045,13,10,37,320,14,15,33,065,10*7D            
$GPGSV,3,2,10,12,22,138,13,25,13,167,,13,05,067,,193,,,*7A                      
$GPGSV,3,3,10,05,,,16,32,,,14*7E                                                
$GPRMC,072313.000,V,,,,,0.00,20.15,280921,,,N*7F                                
$GPVTG,20.15,T,,M,0.00,N,0.0,K,N*34                                             
$GPGGA,072314.000,,,,,0,04,,,M,,M,,0000*7F                                      
$GPGSA,A,1,,,,,,,,,,,,,,,*1E                                                    
$GPGSV,3,1,10,23,72,343,14,24,67,045,11,10,37,320,16,15,33,065,14*78            
$GPGSV,3,2,10,12,22,138,13,25,13,167,,13,05,067,,193,,,*7A                      
$GPGSV,3,3,10,05,,,16,32,,,14*7E                                                
$GPRMC,072314.000,V,,,,,0.00,20.15,280921,,,N*78                                
$GPVTG,20.15,T,,M,0.00,N,0.0,K,N*34                                             
$GPGGA,072315.000,,,,,0,04,,,M,,M,,0000*7E                                      
$GPGSA,A,1,,,,,,,,,,,,,,,*1E                                                    
$GPGSV,3,1,10,23,72,343,13,24,67,045,13,10,37,320,14,15,33,065,11*7A            
$GPGSV,3,2,10,12,22,138,13,25,13,167,,13,05,067,,193,,,*7A                      
$GPGSV,3,3,10,05,,,15,32,,,14*7D                                                
$GPRMC,072315.000,V,,,,,0.00,20.15,280921,,,N*79                                
$GPVTG,20.15,T,,M,0.00,N,0.0,K,N*34                                             
$GPGGA,072316.000,,,,,0,04,,,M,,M,,0000*7D                                      
$GPGSA,A,1,,,,,,,,,,,,,,,*1E                                                    
$GPGSV,3,1,10,23,72,343,15,24,67,045,13,10,37,320,14,15,33,065,12*7F            
$GPGSV,3,2,10,12,22,138,14,25,13,167,,13,05,067,,193,,,*7D                      
$GPGSV,3,3,10,05,,,14,32,,,15*7D                                                
$GPRMC,072316.000,V,,,,,0.00,20.15,280921,,,N*7A                                
$GPVTG,20.15,T,,M,0.00,N,0.0,K,N*34                                             
$GPGGA,072317.000,,,,,0,04,,,M,,M,,0000*7C                                      
$GPGSA,A,1,,,,,,,,,,,,,,,*1E                                                    
$GPGSV,3,1,10,23,72,343,14,24,67,045,13,10,37,320,15,15,33,065,10*7D            
$GPGSV,3,2,10,12,22,138,15,25,13,167,,13,05,067,,193,,,*7C                      
$GPGSV,3,3,10,05,,,14,32,,,14*7C                                                
$GPRMC,072317.000,V,,,,,0.00,20.15,280921,,,N*7B                                
$GPVTG,20.15,T,,M,0.00,N,0.0,K,N*34                                             
$GPGGA,072318.000,,,,,0,04,,,M,,M,,0000*73                                      
$GPGSA,A,1,,,,,,,,,,,,,,,*1E                                                    
$GPGSV,3,1,09,23,72,343,15,24,67,045,12,10,37,320,13,15,33,065,11*72            
$GPGSV,3,2,09,12,22,138,15,25,13,167,,13,05,067,,193,,,*74                      
$GPGSV,3,3,09,05,,,14*70                                                        
$GPRMC,072318.000,V,,,,,0.00,20.15,280921,,,N*74                                
$GPVTG,20.15,T,,M,0.00,N,0.0,K,N*34                                             
$GPGGA,072319.000,,,,,0,03,,,M,,M,,0000*75                                      
$GPGSA,A,1,,,,,,,,,,,,,,,*1E                                                    
$GPGSV,3,1,09,23,72,343,15,24,67,045,10,10,37,320,12,15,33,065,*71              
$GPGSV,3,2,09,12,22,138,15,25,13,167,,13,05,067,,193,,,*74                      
$GPGSV,3,3,09,05,,,14*70                                                        
$GPRMC,072319.000,V,,,,,0.00,20.15,280921,,,N*75                                
$GPVTG,20.15,T,,M,0.00,N,0.0,K,N*34                                             
$GPGGA,072320.000,,,,,0,03,,,M,,M,,0000*7F                                      
$GPGSA,A,1,,,,,,,,,,,,,,,*1E                                                    
$GPGSV,3,1,09,23,72,343,15,24,67,045,10,10,37,320,10,15,33,065,*73              
$GPGSV,3,2,09,12,22,138,15,25,13,167,,13,05,067,,193,,,*74                      
$GPGSV,3,3,09,05,,,13*77                                                        
$GPRMC,072320.000,V,,,,,0.00,20.15,280921,,,N*7F                                
$GPVTG,20.15,T,,M,0.00,N,0.0,K,N*34                                             
$GPGGA,072321.000,,,,,0,02,,,M,,M,,0000*7F                                      
$GPGSA,A,1,,,,,,,,,,,,,,,*1E                                                    
$GPGSV,3,1,09,23,72,343,14,24,67,045,,10,37,320,14,15,33,065,*77                
$GPGSV,3,2,09,12,22,138,14,25,13,167,,13,05,067,,193,,,*75                      
$GPGSV,3,3,09,05,,,12*76                                                        
$GPRMC,072321.000,V,,,,,0.00,20.15,280921,,,N*7E                                
$GPVTG,20.15,T,,M,0.00,N,0.0,K,N*34                                             
$GPGGA,072322.000,,,,,0,02,,,M,,M,,0000*7C                                      
$GPGSA,A,1,,,,,,,,,,,,,,,*1E                                                    
$GPGSV,3,1,09,23,72,343,16,24,67,045,,10,37,320,14,15,33,065,*75                
$GPGSV,3,2,09,12,22,138,14,25,13,167,,13,05,067,,193,,,*75                      
$GPGSV,3,3,09,05,,,13*77                                                        
$GPRMC,072322.000,V,,,,,0.00,20.15,280921,,,N*7D                                
$GPVTG,20.15,T,,M,0.00,N,0.0,K,N*34                                             
$GPGGA,072323.000,,,,,0,02,,,M,,M,,0000*7D                                      
$GPGSA,A,1,,,,,,,,,,,,,,,*1E                                                    
$GPGSV,3,1,09,23,72,343,15,24,67,045,,10,37,320,12,15,33,065,*70                
$GPGSV,3,2,09,12,22,138,14,25,13,167,,13,05,067,,193,,,*75                      
$GPGSV,3,3,09,05,,,13*77                                                        
$GPRMC,072323.000,V,,,,,0.00,20.15,280921,,,N*7C                                
$GPVTG,20.15,T,,M,0.00,N,0.0,K,N*34                                             
$GPGGA,072324.000,,,,,0,02,,,M,,M,,0000*7A                                      
$GPGSA,A,1,,,,,,,,,,,,,,,*1E                                                    
$GPGSV,3,1,09,23,72,343,17,24,67,045,,10,37,320,15,15,33,065,*75                
$GPGSV,3,2,09,12,22,138,13,25,13,167,,13,05,067,,193,,,*72                      
$GPGSV,3,3,09,05,,,13*77                                                        
$GPRMC,072324.000,V,,,,,0.00,20.15,280921,,,N*7B                                
$GPVTG,20.15,T,,M,0.00,N,0.0,K,N*34                                             
$GPGGA,072325.000,,,,,0,02,,,M,,M,,0000*7B                                      
$GPGSA,A,1,,,,,,,,,,,,,,,*1E                                                    
$GPGSV,3,1,09,23,72,343,17,24,67,045,,10,37,320,14,15,33,065,*74                
$GPGSV,3,2,09,12,22,138,13,25,13,167,,13,05,067,,193,,,*72                      
$GPGSV,3,3,09,05,,,13*77                                                        
$GPRMC,072325.000,V,,,,,0.00,20.15,280921,,,N*7A                                
$GPVTG,20.15,T,,M,0.00,N,0.0,K,N*34                                             
$GPGGA,072326.000,,,,,0,02,,,M,,M,,0000*78                                      
$GPGSA,A,1,,,,,,,,,,,,,,,*1E                                                    
$GPGSV,3,1,09,23,72,343,16,24,67,045,,10,37,320,15,15,33,065,*74                
$GPGSV,3,2,09,12,22,138,13,25,13,167,,13,05,067,,193,,,*72                      
$GPGSV,3,3,09,05,,,12*76                                                        
$GPRMC,072326.000,V,,,,,0.00,20.15,280921,,,N*79                                
$GPVTG,20.15,T,,M,0.00,N,0.0,K,N*34                                             
$GPGGA,072327.000,,,,,0,02,,,M,,M,,0000*79                                      
$GPGSA,A,1,,,,,,,,,,,,,,,*1E                                                    
$GPGSV,3,1,09,23,72,343,15,24,67,045,,10,37,320,16,15,33,065,*74                
$GPGSV,3,2,09,12,22,138,13,25,13,167,,13,05,067,,193,,,*72                      
$GPGSV,3,3,09,05,,,13*77                                                        
$GPRMC,072327.000,V,,,,,0.00,20.15,280921,,,N*78                                
$GPVTG,20.15,T,,M,0.00,N,0.0,K,N*34                                             
$GPGGA,072328.000,,,,,0,02,,,M,,M,,0000*76                                      
$GPGSA,A,1,,,,,,,,,,,,,,,*1E                                                    
$GPGSV,3,1,09,23,72,343,15,24,67,045,,10,37,320,18,15,33,065,*7A                
$GPGSV,3,2,09,12,22,138,14,25,13,167,,13,05,067,,193,,,*75                      
$GPGSV,3,3,09,05,,,13*77                                                        
$GPRMC,072328.000,V,,,,,0.00,20.15,280921,,,N*77                                
$GPVTG,20.15,T,,M,0.00,N,0.0,K,N*34                                             
$GPGGA,072329.000,,,,,0,02,,,M,,M,,0000*77                                      
$GPGSA,A,1,,,,,,,,,,,,,,,*1E                                                    
$GPGSV,3,1,09,23,72,343,14,24,67,045,,10,37,320,21,15,33,065,*71                
$GPGSV,3,2,09,12,22,138,13,25,13,167,,13,05,067,,193,,,*72                      
$GPGSV,3,3,09,05,,,14*70                                                        
$GPRMC,072329.000,V,,,,,0.00,20.15,280921,,,N*76                                
$GPVTG,20.15,T,,M,0.00,N,0.0,K,N*34                                             
$GPGGA,072330.000,,,,,0,02,,,M,,M,,0000*7F                                      
$GPGSA,A,1,,,,,,,,,,,,,,,*1E                                                    
$GPGSV,3,1,09,23,72,343,15,24,67,045,,10,37,320,20,15,33,065,*71                
$GPGSV,3,2,09,12,22,138,13,25,13,167,,13,05,067,,193,,,*72                      
$GPGSV,3,3,09,05,,,15*71                                                        
$GPRMC,072330.000,V,,,,,0.00,20.15,280921,,,N*7E                                
$GPVTG,20.15,T,,M,0.00,N,0.0,K,N*34                                             
$GPGGA,072331.000,,,,,0,02,,,M,,M,,0000*7E                                      
$GPGSA,A,1,,,,,,,,,,,,,,,*1E                                                    
$GPGSV,3,1,09,23,72,343,14,24,67,045,,10,37,320,19,15,33,065,*7A                
$GPGSV,3,2,09,12,22,138,14,25,13,167,,13,05,067,,193,,,*75                      
$GPGSV,3,3,09,05,,,16*72                                                        
$GPRMC,072331.000,V,,,,,0.00,20.15,280921,,,N*7F                                
$GPVTG,20.15,T,,M,0.00,N,0.0,K,N*34                                             
$GPGGA,072332.000,,,,,0,02,,,M,,M,,0000*7D                                      
$GPGSA,A,1,,,,,,,,,,,,,,,*1E                                                    
$GPGSV,3,1,09,23,72,343,17,24,67,045,,10,37,320,18,15,33,065,*78                
$GPGSV,3,2,09,12,22,138,14,25,13,167,,13,05,067,,193,,,*75                      
$GPGSV,3,3,09,05,,,16*72                                                        
$GPRMC,072332.000,V,,,,,0.00,20.15,280921,,,N*7C                                
$GPVTG,20.15,T,,M,0.00,N,0.0,K,N*34                                             
$GPGGA,072333.000,,,,,0,02,,,M,,M,,0000*7C                                      
$GPGSA,A,1,,,,,,,,,,,,,,,*1E                                                    
$GPGSV,3,1,09,23,72,343,16,24,67,045,,10,37,320,17,15,33,065,*76                
$GPGSV,3,2,09,12,22,138,13,25,13,167,,13,05,067,,193,,,*72                      
$GPGSV,3,3,09,05,,,16*72                                                        
$GPRMC,072333.000,V,,,,,0.00,20.15,280921,,,N*7D                                
$GPVTG,20.15,T,,M,0.00,N,0.0,K,N*34                                             
$GPGGA,072334.000,,,,,0,02,,,M,,M,,0000*7B                                      
$GPGSA,A,1,,,,,,,,,,,,,,,*1E                                                    
$GPGSV,3,1,09,23,72,343,17,24,67,045,,10,37,320,17,15,33,065,*77                
$GPGSV,3,2,09,12,22,138,13,25,13,167,,13,05,067,,193,,,*72                      
$GPGSV,3,3,09,05,,,16*72                                                        
$GPRMC,072334.000,V,,,,,0.00,20.15,280921,,,N*7A                                
$GPVTG,20.15,T,,M,0.00,N,0.0,K,N*34                                             
$GPGGA,072335.000,,,,,0,02,,,M,,M,,0000*7A                                      
$GPGSA,A,1,,,,,,,,,,,,,,,*1E                                                    
$GPGSV,3,1,09,23,72,343,15,24,67,045,,10,37,320,17,15,33,065,*75                
$GPGSV,3,2,09,12,23,138,13,25,13,167,,13,05,067,,193,,,*73                      
$GPGSV,3,3,09,05,,,16*72                                                        
$GPRMC,072335.000,V,,,,,0.00,20.15,280921,,,N*7B                                
$GPVTG,20.15,T,,M,0.00,N,0.0,K,N*34                                             
$GPGGA,072336.000,,,,,0,02,,,M,,M,,0000*79                                      
$GPGSA,A,1,,,,,,,,,,,,,,,*1E                                                    
$GPGSV,3,1,09,23,72,343,15,24,67,045,,10,37,320,17,15,33,065,*75                
$GPGSV,3,2,09,12,23,138,13,25,13,167,,13,05,067,,193,,,*73                      
$GPGSV,3,3,09,05,,,16*72                                                        
$GPRMC,072336.000,V,,,,,0.00,20.15,280921,,,N*78                                
$GPVTG,20.15,T,,M,0.00,N,0.0,K,N*34                                             
$GPGGA,072337.000,,,,,0,02,,,M,,M,,0000*78                                      
$GPGSA,A,1,,,,,,,,,,,,,,,*1E                                                    
$GPGSV,3,1,09,23,72,343,15,24,67,045,,10,37,320,17,15,33,065,*75                
$GPGSV,3,2,09,12,23,138,13,25,13,167,,13,05,067,,193,,,*73                      
$GPGSV,3,3,09,05,,,16*72                                                        
$GPRMC,072337.000,V,,,,,0.00,20.15,280921,,,N*79                                
$GPVTG,20.15,T,,M,0.00,N,0.0,K,N*34                                             
$GPGGA,072338.000,,,,,0,02,,,M,,M,,0000*77                                      
$GPGSA,A,1,,,,,,,,,,,,,,,*1E                                                    
$GPGSV,3,1,09,23,72,343,13,24,67,045,,10,37,320,17,15,33,065,*73                
$GPGSV,3,2,09,12,23,138,14,25,13,167,,13,05,067,,193,,,*74                      
$GPGSV,3,3,09,05,,,15*71                                                        
$GPRMC,072338.000,V,,,,,0.00,20.15,280921,,,N*76                                
$GPVTG,20.15,T,,M,0.00,N,0.0,K,N*34                                             
$GPGGA,072339.000,,,,,0,02,,,M,,M,,0000*76                                      
$GPGSA,A,1,,,,,,,,,,,,,,,*1E                                                    
$GPGSV,3,1,09,23,72,343,12,24,67,045,,10,37,320,17,15,33,065,*72                
$GPGSV,3,2,09,12,23,138,14,25,13,167,,13,05,067,,193,,,*74                      
$GPGSV,3,3,09,05,,,17*73                                                        
$GPRMC,072339.000,V,,,,,0.00,20.15,280921,,,N*77                                
$GPVTG,20.15,T,,M,0.00,N,0.0,K,N*34                                             
$GPGGA,072340.000,,,,,0,02,,,M,,M,,0000*78                                      
$GPGSA,A,1,,,,,,,,,,,,,,,*1E                                                    
$GPGSV,3,1,09,23,72,343,12,24,67,045,,10,37,320,17,15,33,065,*72                
$GPGSV,3,2,09,12,23,138,13,25,13,167,,13,05,067,,193,,,*73                      
$GPGSV,3,3,09,05,,,28*7F                                                        
$GPRMC,072340.000,V,,,,,0.00,20.15,280921,,,N*79                                
$GPVTG,20.15,T,,M,0.00,N,0.0,K,N*34                                             
$GPGGA,072341.000,,,,,0,02,,,M,,M,,0000*79                                      
$GPGSA,A,1,,,,,,,,,,,,,,,*1E                                                    
$GPGSV,3,1,09,23,72,343,12,24,67,045,,10,37,320,17,15,33,065,*72                
$GPGSV,3,2,09,12,23,138,13,25,13,167,,13,05,067,,193,,,*73                      
$GPGSV,3,3,09,05,,,27*70                                                        
$GPRMC,072341.000,V,,,,,0.00,20.15,280921,,,N*78                                
$GPVTG,20.15,T,,M,0.00,N,0.0,K,N*34                                             
$GPGGA,072342.000,,,,,0,02,,,M,,M,,0000*7A                                      
$GPGSA,A,1,,,,,,,,,,,,,,,*1E                                                    
$GPGSV,3,1,09,23,72,343,14,24,67,045,,10,37,320,16,15,33,065,*75                
$GPGSV,3,2,09,12,23,138,14,25,13,167,,13,05,067,,193,,,*74                      
$GPGSV,3,3,09,05,,,27*70                                                        
$GPRMC,072342.000,V,,,,,0.00,20.15,280921,,,N*7B                                
$GPVTG,20.15,T,,M,0.00,N,0.0,K,N*34                                             
$GPGGA,072343.000,,,,,0,02,,,M,,M,,0000*7B                                      
$GPGSA,A,1,,,,,,,,,,,,,,,*1E                                                    
$GPGSV,3,1,09,23,72,343,13,24,67,045,,10,37,320,16,15,33,065,*72                
$GPGSV,3,2,09,12,23,138,14,25,13,167,,13,05,067,,193,,,*74                      
$GPGSV,3,3,09,05,,,28*7F                                                        
$GPRMC,072343.000,V,,,,,0.00,20.15,280921,,,N*7A                                
$GPVTG,20.15,T,,M,0.00,N,0.0,K,N*34                                             
$GPGGA,072344.000,,,,,0,02,,,M,,M,,0000*7C                                      
$GPGSA,A,1,,,,,,,,,,,,,,,*1E                                                    
$GPGSV,3,1,09,23,72,343,16,24,67,045,,10,37,320,16,15,33,065,*77                
$GPGSV,3,2,09,12,23,138,14,25,13,167,,13,05,067,,193,,,*74                      
$GPGSV,3,3,09,05,,,29*7E                                                        
$GPRMC,072344.000,V,,,,,0.00,20.15,280921,,,N*7D                                
$GPVTG,20.15,T,,M,0.00,N,0.0,K,N*34                                             
$GPGGA,072345.000,,,,,0,02,,,M,,M,,0000*7D                                      
$GPGSA,A,1,,,,,,,,,,,,,,,*1E                                                    
$GPGSV,3,1,09,23,72,343,14,24,67,045,,10,37,320,15,15,33,065,*76                
$GPGSV,3,2,09,12,23,138,13,25,13,167,,13,05,067,,193,,,*73                      
$GPGSV,3,3,09,05,,,29*7E                                                        
$GPRMC,072345.000,V,,,,,0.00,20.15,280921,,,N*7C                                
$GPVTG,20.15,T,,M,0.00,N,0.0,K,N*34                                             
$GPGGA,072346.000,,,,,0,02,,,M,,M,,0000*7E                                      
$GPGSA,A,1,,,,,,,,,,,,,,,*1E                                                    
$GPGSV,3,1,09,23,72,344,15,24,67,045,,10,37,320,16,15,33,065,*73                
$GPGSV,3,2,09,12,23,138,13,25,13,167,,13,05,067,,193,,,*73                      
$GPGSV,3,3,09,05,,,30*76                                                        
$GPRMC,072346.000,V,,,,,0.00,20.15,280921,,,N*7F                                
$GPVTG,20.15,T,,M,0.00,N,0.0,K,N*34                                             
$GPGGA,072347.000,,,,,0,02,,,M,,M,,0000*7F                                      
$GPGSA,A,1,,,,,,,,,,,,,,,*1E                                                    
$GPGSV,3,1,09,23,72,344,16,24,67,045,,10,37,320,17,15,33,065,*71                
$GPGSV,3,2,09,12,23,138,13,25,13,167,,13,05,067,,193,,,*73                      
$GPGSV,3,3,09,05,,,30*76                                                        
$GPRMC,072347.000,V,,,,,0.00,20.15,280921,,,N*7E                                
$GPVTG,20.15,T,,M,0.00,N,0.0,K,N*34                                             
$GPGGA,072348.000,,,,,0,02,,,M,,M,,0000*70                                      
$GPGSA,A,1,,,,,,,,,,,,,,,*1E                                                    
$GPGSV,3,1,09,23,72,344,16,24,67,045,,10,37,320,18,15,33,065,*7E                
$GPGSV,3,2,09,12,23,138,13,25,13,167,,13,05,067,,193,,,*73                      
$GPGSV,3,3,09,05,,,30*76                                                        
$GPRMC,072348.000,V,,,,,0.00,20.15,280921,,,N*71                                
$GPVTG,20.15,T,,M,0.00,N,0.0,K,N*34                                             
$GPGGA,072349.000,,,,,0,02,,,M,,M,,0000*71                                      
$GPGSA,A,1,,,,,,,,,,,,,,,*1E                                                    
$GPGSV,3,1,09,23,72,344,16,24,67,045,,10,37,320,15,15,33,065,*73                
$GPGSV,3,2,09,12,23,138,12,25,13,167,,13,05,067,,193,,,*72                      
$GPGSV,3,3,09,05,,,30*76                                                        
$GPRMC,072349.000,V,,,,,0.00,20.15,280921,,,N*70                                
$GPVTG,20.15,T,,M,0.00,N,0.0,K,N*34                                             
$GPGGA,072350.000,,,,,0,02,,,M,,M,,0000*79                                      
$GPGSA,A,1,,,,,,,,,,,,,,,*1E                                                    
$GPGSV,3,1,09,23,72,344,14,24,67,045,,10,37,320,15,15,33,065,*71                
$GPGSV,3,2,09,12,23,138,12,25,13,167,,13,05,067,,193,,,*72                      
$GPGSV,3,3,09,05,,,30*76                                                        
$GPRMC,072350.000,V,,,,,0.00,20.15,280921,,,N*78                                
$GPVTG,20.15,T,,M,0.00,N,0.0,K,N*34                                             
$GPGGA,072351.000,,,,,0,02,,,M,,M,,0000*78                                      
$GPGSA,A,1,,,,,,,,,,,,,,,*1E                                                    
$GPGSV,3,1,09,23,72,344,14,24,67,045,,10,37,320,15,15,33,065,*71                
$GPGSV,3,2,09,12,23,138,12,25,13,167,,13,05,067,,193,,,*72                      
$GPGSV,3,3,09,05,,,29*7E                                                        
$GPRMC,072351.000,V,,,,,0.00,20.15,280921,,,N*79                                
$GPVTG,20.15,T,,M,0.00,N,0.0,K,N*34                                             
$GPGGA,072352.000,,,,,0,02,,,M,,M,,0000*7B                                      
$GPGSA,A,1,,,,,,,,,,,,,,,*1E                                                    
$GPGSV,3,1,09,23,72,344,15,24,67,045,,10,37,320,15,15,33,065,*70                
$GPGSV,3,2,09,12,23,138,12,25,13,167,,13,05,067,,193,,,*72                      
$GPGSV,3,3,09,05,,,30*76                                                        
$GPRMC,072352.000,V,,,,,0.00,20.15,280921,,,N*7A                                
$GPVTG,20.15,T,,M,0.00,N,0.0,K,N*34                                             
$GPGGA,072353.000,,,,,0,02,,,M,,M,,0000*7A                                      
$GPGSA,A,1,,,,,,,,,,,,,,,*1E                                                    
$GPGSV,3,1,09,23,72,344,16,24,67,045,,10,37,320,14,15,33,065,*72                
$GPGSV,3,2,09,12,23,138,,25,13,167,,13,05,067,,193,,,*71                        
$GPGSV,3,3,09,05,,,30*76                                                        
$GPRMC,072353.000,V,,,,,0.00,20.15,280921,,,N*7B                                
$GPVTG,20.15,T,,M,0.00,N,0.0,K,N*34                                             
$GPGGA,072354.000,,,,,0,02,,,M,,M,,0000*7D                                      
$GPGSA,A,1,,,,,,,,,,,,,,,*1E                                                    
$GPGSV,3,1,09,23,72,344,16,24,67,045,,10,37,320,13,15,33,065,*75                
$GPGSV,3,2,09,12,23,138,,25,13,167,,13,05,067,,193,,,*71                        
$GPGSV,3,3,09,05,,,30*76                                                        
$GPRMC,072354.000,V,,,,,0.00,20.15,280921,,,N*7C                                
$GPVTG,20.15,T,,M,0.00,N,0.0,K,N*34                                             
$GPGGA,072355.000,,,,,0,02,,,M,,M,,0000*7C                                      
$GPGSA,A,1,,,,,,,,,,,,,,,*1E                                                    
$GPGSV,3,1,09,23,72,344,16,24,67,045,,10,37,320,13,15,33,065,*75                
$GPGSV,3,2,09,12,23,138,,25,13,167,,13,05,067,,193,,,*71                        
$GPGSV,3,3,09,05,,,30*76                                                        
$GPRMC,072355.000,V,,,,,0.00,20.15,280921,,,N*7D                                
$GPVTG,20.15,T,,M,0.00,N,0.0,K,N*34                                             
$GPGGA,072356.000,,,,,0,02,,,M,,M,,0000*7F                                      
$GPGSA,A,1,,,,,,,,,,,,,,,*1E                                                    
$GPGSV,3,1,09,23,72,344,17,24,67,045,,10,37,320,14,15,33,065,*73                
$GPGSV,3,2,09,12,23,138,,25,13,167,,13,05,067,,193,,,*71                        
$GPGSV,3,3,09,05,,,31*77                                                        
$GPRMC,072356.000,V,,,,,0.00,20.15,280921,,,N*7E                                
$GPVTG,20.15,T,,M,0.00,N,0.0,K,N*34                                             
$GPGGA,072357.000,,,,,0,02,,,M,,M,,0000*7E                                      
$GPGSA,A,1,,,,,,,,,,,,,,,*1E                                                    
$GPGSV,3,1,09,23,72,344,17,24,67,045,,10,37,320,14,15,33,065,*73                
$GPGSV,3,2,09,12,23,138,,25,13,167,,13,05,067,,193,,,*71                        
