$GPGSV,3,2,09,12,24,136,,25,14,166,,05,09,129,,13,04,069,*7C                    
$GPGSV,3,3,09,193,,,*4B                                                         
$GPRMC,072707.000,V,,,,,0.00,20.15,280921,,,N*7E                                
$GPVTG,20.15,T,,M,0.00,N,0.0,K,N*34                                             
$GPGGA,072708.000,,,,,0,00,,,M,,M,,0000*72                                      
$GPGSA,A,1,,,,,,,,,,,,,,,*1E                                                    
$GPGSV,3,1,09,23,73,345,,24,66,044,,10,38,321,,15,32,066,*7C                    
$GPGSV,3,2,09,12,24,136,,25,14,166,,05,09,129,,13,04,069,*7C                    
$GPGSV,3,3,09,193,,,*4B                                                         
$GPRMC,072708.000,V,,,,,0.00,20.15,280921,,,N*71                                
$GPVTG,20.15,T,,M,0.00,N,0.0,K,N*34                                             
$GPGGA,072709.000,,,,,0,00,,,M,,M,,0000*73                                      
$GPGSA,A,1,,,,,,,,,,,,,,,*1E                                                    
$GPGSV,3,1,09,23,73,345,,24,66,044,,10,38,321,,15,32,066,*7C                    
$GPGSV,3,2,09,12,24,136,,25,14,166,,05,09,129,,13,04,069,*7C                    
$GPGSV,3,3,09,193,,,*4B                                                         
$GPRMC,072709.000,V,,,,,0.00,20.15,280921,,,N*70                                
$GPVTG,20.15,T,,M,0.00,N,0.0,K,N*34                                             
$GPGGA,072710.000,,,,,0,00,,,M,,M,,0000*7B                                      
$GPGSA,A,1,,,,,,,,,,,,,,,*1E                                                    
$GPGSV,3,1,09,23,73,345,,24,66,044,,10,38,321,,15,32,066,*7C                    
$GPGSV,3,2,09,12,24,136,,25,14,166,,05,09,129,,13,04,069,*7C                    
$GPGSV,3,3,09,193,,,*4B                                                         
$GPRMC,072710.000,V,,,,,0.00,20.15,280921,,,N*78                                
$GPVTG,20.15,T,,M,0.00,N,0.0,K,N*34                                             
$GPGGA,072711.000,,,,,0,00,,,M,,M,,0000*7A                                      
$GPGSA,A,1,,,,,,,,,,,,,,,*1E                                                    
$GPGSV,3,1,09,23,73,345,,24,66,044,,10,38,321,,15,32,066,*7C                    
$GPGSV,3,2,09,12,24,136,,25,14,166,,05,09,129,,13,04,069,*7C                    
$GPGSV,3,3,09,193,,,*4B                                                         
$GPRMC,072711.000,V,,,,,0.00,20.15,280921,,,N*79                                
$GPVTG,20.15,T,,M,0.00,N,0.0,K,N*34                                             
$GPGGA,072712.000,,,,,0,00,,,M,,M,,0000*79                                      
$GPGSA,A,1,,,,,,,,,,,,,,,*1E                                                    
$GPGSV,3,1,09,23,73,345,,24,66,044,,10,38,321,,15,32,066,*7C                    
$GPGSV,3,2,09,12,24,136,,25,14,166,,05,09,129,,13,04,069,*7C                    
$GPGSV,3,3,09,193,,,*4B                                                         
$GPRMC,072712.000,V,,,,,0.00,20.15,280921,,,N*7A                                
$GPVTG,20.15,T,,M,0.00,N,0.0,K,N*34                                             
$GPGGA,072713.000,,,,,0,00,,,M,,M,,0000*78                                      
$GPGSA,A,1,,,,,,,,,,,,,,,*1E                                                    
$GPGSV,3,1,09,23,73,345,,24,66,044,,10,38,321,,15,32,066,*7C                    
$GPGSV,3,2,09,12,24,136,,25,14,166,,05,09,129,,13,04,069,*7C                    
$GPGSV,3,3,09,193,,,*4B                                                         
$GPRMC,072713.000,V,,,,,0.00,20.15,280921,,,N*7B                                
$GPVTG,20.15,T,,M,0.00,N,0.0,K,N*34                                             
$GPGGA,072714.000,,,,,0,00,,,M,,M,,0000*7F                                      
$GPGSA,A,1,,,,,,,,,,,,,,,*1E                                                    
$GPGSV,3,1,09,23,73,345,,24,66,044,,10,38,321,,15,32,066,*7C                    
$GPGSV,3,2,09,12,24,136,,25,14,166,,05,09,129,,13,04,069,*7C                    
$GPGSV,3,3,09,193,,,*4B                                                         
$GPRMC,072714.000,V,,,,,0.00,20.15,280921,,,N*7C                                
$GPVTG,20.15,T,,M,0.00,N,0.0,K,N*34                                             
$GPGGA,072715.000,,,,,0,02,,,M,,M,,0000*7C                                      
$GPGSA,A,1,,,,,,,,,,,,,,,*1E                                                    
$GPGSV,3,1,09,23,73,345,38,24,66,044,29,10,38,321,,15,32,066,*7C                
$GPGSV,3,2,09,12,24,136,,25,14,166,,05,09,129,,13,04,069,*7C                    
$GPGSV,3,3,09,193,,,*4B                                                         
$GPRMC,072715.000,V,,,,,0.00,20.15,280921,,,N*7D                                
$GPVTG,20.15,T,,M,0.00,N,0.0,K,N*34                                             
$GPGGA,072716.000,,,,,0,03,,,M,,M,,0000*7E                                      
$GPGSA,A,1,,,,,,,,,,,,,,,*1E                                                    
$GPGSV,3,1,09,23,73,345,31,24,66,044,36,10,38,321,29,15,32,066,*70              
$GPGSV,3,2,09,12,24,136,,25,14,166,,05,09,129,,13,04,069,*7C                    
$GPGSV,3,3,09,193,,,*4B                                                         
$GPRMC,072716.000,V,,,,,0.00,20.15,280921,,,N*7E                                
$GPVTG,20.15,T,,M,0.00,N,0.0,K,N*34                                             
$GPGGA,072717.000,,,,,0,04,,,M,,M,,0000*78                                      
$GPGSA,A,1,,,,,,,,,,,,,,,*1E                                                    
$GPGSV,3,1,09,23,74,345,31,24,66,044,39,10,38,321,29,15,32,066,*78              
$GPGSV,3,2,09,12,24,136,,25,14,166,,05,09,129,24,13,04,069,*7A                  
$GPGSV,3,3,09,193,,,*4B                                                         
$GPRMC,072717.000,V,,,,,0.00,20.15,280921,,,N*7F                                
$GPVTG,20.15,T,,M,0.00,N,0.0,K,N*34                                             
$GPGGA,072718.000,,,,,0,04,,,M,,M,,0000*77                                      
$GPGSA,A,1,,,,,,,,,,,,,,,*1E                                                    
$GPGSV,3,1,10,23,74,345,34,24,66,044,31,10,38,321,31,15,32,066,*74              
$GPGSV,3,2,10,12,24,136,31,40,19,251,,25,14,166,,05,09,129,34*72                
$GPGSV,3,3,10,13,04,069,,193,,,29*71                                            
$GPRMC,072718.000,V,,,,,0.00,20.15,280921,,,N*70                                
$GPVTG,20.15,T,,M,0.00,N,0.0,K,N*34                                             
$GPGGA,072719.000,,,,,0,05,,,M,,M,,0000*77                                      
$GPGSA,A,1,,,,,,,,,,,,,,,*1E                                                    
$GPGSV,3,1,10,23,74,345,29,24,66,044,35,10,38,321,25,15,32,066,37*7D            
$GPGSV,3,2,10,12,24,136,39,40,19,251,27,25,14,166,,05,09,129,34*7F              
$GPGSV,3,3,10,13,04,069,,193,,,38*71                                            
$GPRMC,072719.000,V,,,,,0.00,20.15,280921,,,N*71                                
$GPVTG,20.15,T,,M,0.00,N,0.0,K,N*34                                             
$GPGGA,072720.000,,,,,0,05,,,M,,M,,0000*7D                                      
$GPGSA,A,1,,,,,,,,,,,,,,,*1E                                                    
$GPGSV,3,1,10,23,74,345,29,24,66,044,27,10,38,321,29,15,32,066,35*70            
$GPGSV,3,2,10,12,24,136,28,40,19,251,30,25,14,166,,05,09,129,20*7C              
$GPGSV,3,3,10,13,04,069,,193,,,36*7F                                            
$GPRMC,072720.000,V,,,,,0.00,20.15,280921,,,N*7B                                
$GPVTG,20.15,T,,M,0.00,N,0.0,K,N*34                                             
$GPGGA,072721.000,,,,,0,05,,,M,,M,,0000*7C                                      
$GPGSA,A,1,,,,,,,,,,,,,,,*1E                                                    
$GPGSV,3,1,10,23,74,345,30,24,66,044,29,10,38,321,28,15,32,066,40*75            
$GPGSV,3,2,10,12,24,136,29,40,19,251,29,25,14,166,,05,09,129,23*76              
$GPGSV,3,3,10,13,04,069,,193,,,32*7B                                            
$GPRMC,072721.000,V,,,,,0.00,20.15,280921,,,N*7A                                
$GPVTG,20.15,T,,M,0.00,N,0.0,K,N*34                                             
$GPGGA,072722.000,3110.0273,N,12124.0572,E,1,05,1.89,58.2,M,8.0,M,,0000*6D      
$GPGSA,A,3,23,24,15,05,10,,,,,,,,2.10,1.89,0.91*0E                              
$GPGSV,3,1,10,23,74,345,31,24,66,044,29,10,38,321,27,15,32,066,25*78            
$GPGSV,3,2,10,12,24,136,32,40,19,251,30,25,14,166,,05,09,129,34*72              
$GPGSV,3,3,10,13,04,069,,193,,,32*7B                                            
$GPRMC,072722.000,A,3110.0273,N,12124.0572,E,2.68,50.02,280921,,,A*56           
$GPVTG,50.02,T,,M,2.68,N,5.0,K,A*33                                             
$GPGGA,072723.000,3110.0252,N,12124.0564,E,1,05,1.89,52.9,M,8.0,M,,0000*69      
$GPGSA,A,3,23,24,15,05,10,,,,,,,,2.10,1.89,0.91*0E                              
$GPGSV,3,1,10,23,74,345,29,24,66,044,37,10,38,321,34,15,32,066,35*7D            
$GPGSV,3,2,10,12,24,136,27,40,19,251,28,25,14,166,,05,09,129,32*79              
$GPGSV,3,3,10,13,04,069,,193,,,38*71                                            
$GPRMC,072723.000,A,3110.0252,N,12124.0564,E,2.22,51.58,280921,,,A*53           
$GPVTG,51.58,T,,M,2.22,N,4.1,K,A*33                                             
$GPGGA,072724.000,3110.0246,N,12124.0565,E,1,05,1.89,50.9,M,8.0,M,,0000*68      
$GPGSA,A,3,23,24,15,05,10,,,,,,,,2.10,1.89,0.91*0E                              
$GPGSV,3,1,10,23,74,345,31,24,66,044,36,10,38,321,26,15,32,066,35*76            
$GPGSV,3,2,10,12,24,136,27,40,19,251,29,25,14,166,,05,09,129,30*7A              
$GPGSV,3,3,10,13,04,069,,193,,,30*79                                            
$GPRMC,072724.000,A,3110.0246,N,12124.0565,E,2.46,51.39,280921,,,A*55           
$GPVTG,51.39,T,,M,2.46,N,4.6,K,A*31                                             
$GPGGA,072725.000,3110.0234,N,12124.0567,E,1,05,1.89,48.9,M,8.0,M,,0000*67      
$GPGSA,A,3,23,24,15,05,10,,,,,,,,2.10,1.89,0.91*0E                              
$GPGSV,3,1,10,23,74,345,30,24,66,044,35,10,38,321,26,15,32,066,36*77            
$GPGSV,3,2,10,12,24,136,28,40,19,251,29,25,14,166,,05,09,129,28*7C              
$GPGSV,3,3,10,13,04,069,,193,,,37*7E                                            
$GPRMC,072725.000,A,3110.0234,N,12124.0567,E,3.17,53.24,280921,,,A*58           
$GPVTG,53.24,T,,M,3.17,N,5.9,K,A*34                                             
$GPGGA,072726.000,3110.0241,N,12124.0577,E,1,05,1.89,49.8,M,8.0,M,,0000*67      
$GPGSA,A,3,23,24,15,05,10,,,,,,,,2.10,1.89,0.91*0E                              
$GPGSV,3,1,10,23,74,345,32,24,66,044,34,10,38,321,28,15,32,066,36*7A            
$GPGSV,3,2,10,12,24,136,27,40,19,251,30,25,14,166,,05,09,129,29*7A              
$GPGSV,3,3,10,13,04,069,,193,,,37*7E                                            
$GPRMC,072726.000,A,3110.0241,N,12124.0577,E,2.34,53.67,280921,,,A*5F           
$GPVTG,53.67,T,,M,2.34,N,4.3,K,A*38                                             
$GPGGA,072727.000,3110.0248,N,12124.0584,E,1,05,1.89,50.6,M,8.0,M,,0000*65      
$GPGSA,A,3,23,24,15,05,10,,,,,,,,2.10,1.89,0.91*0E                              
$GPGSV,3,1,10,23,74,345,31,24,66,044,32,10,38,321,28,15,32,066,35*7C            
$GPGSV,3,2,10,12,24,136,28,40,19,251,28,25,14,166,,05,09,129,29*7C              
$GPGSV,3,3,10,13,04,069,,193,,,30*79                                            
$GPRMC,072727.000,A,3110.0248,N,12124.0584,E,0.00,53.67,280921,,,A*5E           
$GPVTG,53.67,T,,M,0.00,N,0.0,K,A*3A                                             
$GPGGA,072728.000,3110.0246,N,12124.0584,E,1,05,1.89,50.4,M,8.0,M,,0000*66      
$GPGSA,A,3,23,24,15,05,10,,,,,,,,2.10,1.89,0.91*0E                              
$GPGSV,3,1,10,23,74,345,30,24,66,044,31,10,38,321,40,15,32,066,36*73            
$GPGSV,3,2,10,12,24,136,38,40,19,251,26,25,14,166,,05,09,129,27*7D              
$GPGSV,3,3,10,13,04,069,,193,,,29*71                                            
$GPRMC,072728.000,A,3110.0246,N,12124.0584,E,0.00,53.67,280921,,,A*5F           
$GPVTG,53.67,T,,M,0.00,N,0.0,K,A*3A                                             
$GPGGA,072729.000,3110.0242,N,12124.0577,E,1,04,5.36,48.9,M,8.0,M,,0000*6A      
$GPGSA,A,3,23,24,15,10,,,,,,,,,5.45,5.36,0.99*04                                
$GPGSV,3,1,11,23,74,345,28,24,66,044,31,10,38,321,33,15,32,066,43*7D            
$GPGSV,3,2,11,12,24,136,38,40,19,251,26,25,14,166,,05,09,129,19*71              
$GPGSV,3,3,11,13,04,069,,193,,,30,32,,,25*7E                                    
$GPRMC,072729.000,A,3110.0242,N,12124.0577,E,0.00,53.67,280921,,,A*56           
$GPVTG,53.67,T,,M,0.00,N,0.0,K,A*3A                                             
$GPGGA,072730.000,3110.0248,N,12124.0576,E,1,05,1.89,48.8,M,8.0,M,,0000*69      
$GPGSA,A,3,23,24,15,05,10,,,,,,,,2.10,1.89,0.91*0E                              
$GPGSV,3,1,11,23,74,345,28,24,66,044,32,10,38,321,33,15,32,066,44*79            
$GPGSV,3,2,11,12,24,136,37,40,19,251,25,25,14,166,,05,09,129,27*70              
$GPGSV,3,3,11,13,04,069,,193,,,30,32,,,20*7B                                    
$GPRMC,072730.000,A,3110.0248,N,12124.0576,E,0.00,53.67,280921,,,A*55           
$GPVTG,53.67,T,,M,0.00,N,0.0,K,A*3A                                             
$GPGGA,072731.000,3110.0246,N,12124.0574,E,1,05,1.89,48.4,M,8.0,M,,0000*68      
$GPGSA,A,3,23,24,15,05,10,,,,,,,,2.10,1.89,0.91*0E                              
$GPGSV,3,1,11,23,74,345,29,24,66,044,34,10,38,321,31,15,32,066,44*7C            
$GPGSV,3,2,11,12,24,136,30,40,19,251,25,25,14,166,,05,09,129,29*79              
$GPGSV,3,3,11,13,04,069,,193,,,31,32,,,32*79                                    
$GPRMC,072731.000,A,3110.0246,N,12124.0574,E,0.00,53.67,280921,,,A*58           
$GPVTG,53.67,T,,M,0.00,N,0.0,K,A*3A                                             
$GPGGA,072732.000,3110.0241,N,12124.0576,E,1,05,1.89,48.3,M,8.0,M,,0000*69      
$GPGSA,A,3,23,24,15,05,10,,,,,,,,2.10,1.89,0.91*0E                              
$GPGSV,3,1,11,23,74,345,29,24,66,044,35,10,38,321,29,15,32,066,42*72            
$GPGSV,3,2,11,12,24,136,32,25,14,166,,05,09,129,36,13,04,069,*71                
$GPGSV,3,3,11,193,,,32,34,,,,32,,,38*4E                                         
$GPRMC,072732.000,A,3110.0241,N,12124.0576,E,0.00,53.67,280921,,,A*5E           
$GPVTG,53.67,T,,M,0.00,N,0.0,K,A*3A                                             
$GPGGA,072733.000,3110.0247,N,12124.0581,E,1,05,1.89,48.3,M,8.0,M,,0000*66      
$GPGSA,A,3,23,24,15,05,10,,,,,,,,2.10,1.89,0.91*0E                              
$GPGSV,3,1,11,23,74,345,29,24,66,044,36,10,38,321,29,15,32,066,34*70            
$GPGSV,3,2,11,12,24,136,30,25,14,166,,05,09,129,34,13,04,069,*71                
$GPGSV,3,3,11,193,,,31,34,,,,32,,,28*4C                                         
$GPRMC,072733.000,A,3110.0247,N,12124.0581,E,0.00,53.67,280921,,,A*51           
$GPVTG,53.67,T,,M,0.00,N,0.0,K,A*3A                                             
$GPGGA,072734.000,3110.0255,N,12124.0584,E,1,05,1.89,48.7,M,8.0,M,,0000*63      
$GPGSA,A,3,23,24,15,05,10,,,,,,,,2.10,1.89,0.91*0E                              
$GPGSV,3,1,11,23,74,345,31,24,66,044,36,10,38,321,31,15,32,066,34*70            
$GPGSV,3,2,11,12,24,136,30,25,14,166,,05,09,129,34,13,04,069,*71                
$GPGSV,3,3,11,193,,,29,34,,,,32,,,41*4A                                         
$GPRMC,072734.000,A,3110.0255,N,12124.0584,E,0.00,53.67,280921,,,A*50           
$GPVTG,53.67,T,,M,0.00,N,0.0,K,A*3A                                             
$GPGGA,072735.000,3110.0250,N,12124.0581,E,1,05,1.89,47.3,M,8.0,M,,0000*69      
$GPGSA,A,3,23,24,15,05,10,,,,,,,,2.10,1.89,0.91*0E                              
$GPGSV,3,1,11,23,74,345,33,24,66,044,35,10,38,321,32,15,32,066,34*72            
$GPGSV,3,2,11,12,24,136,32,25,14,166,,05,09,129,23,13,04,069,*75                
$GPGSV,3,3,11,193,,,31,34,,,,32,,,32*47                                         
$GPRMC,072735.000,A,3110.0250,N,12124.0581,E,0.00,53.67,280921,,,A*51           
$GPVTG,53.67,T,,M,0.00,N,0.0,K,A*3A                                             
$GPGGA,072736.000,3110.0250,N,12124.0582,E,1,05,1.89,47.2,M,8.0,M,,0000*68      
$GPGSA,A,3,23,24,15,05,10,,,,,,,,2.10,1.89,0.91*0E                              
$GPGSV,3,1,11,23,74,345,24,24,66,044,27,10,38,321,30,15,32,066,34*75            
$GPGSV,3,2,11,12,24,136,33,25,14,166,,05,09,129,23,13,04,069,*74                
$GPGSV,3,3,11,193,,,33,34,,,,32,,,32*45                                         
$GPRMC,072736.000,A,3110.0250,N,12124.0582,E,0.00,53.67,280921,,,A*51           
$GPVTG,53.67,T,,M,0.00,N,0.0,K,A*3A                                             
$GPGGA,072737.000,3110.0242,N,12124.0579,E,1,05,1.89,45.3,M,8.0,M,,0000*6D      
$GPGSA,A,3,23,24,15,05,10,,,,,,,,2.10,1.89,0.91*0E                              
$GPGSV,3,1,11,23,74,345,34,24,66,044,38,10,38,321,22,15,32,066,32*7F            
$GPGSV,3,2,11,12,24,136,22,25,14,166,,05,09,129,23,13,04,069,*74                
$GPGSV,3,3,11,193,,,34,34,,,,32,,,33*43                                         
$GPRMC,072737.000,A,3110.0242,N,12124.0579,E,0.00,53.67,280921,,,A*57           
$GPVTG,53.67,T,,M,0.00,N,0.0,K,A*3A                                             
$GPGGA,072738.000,3110.0226,N,12124.0574,E,1,05,1.89,42.7,M,8.0,M,,0000*6E      
$GPGSA,A,3,23,24,15,05,10,,,,,,,,2.10,1.89,0.91*0E                              
$GPGSV,3,1,11,23,74,345,33,24,66,044,38,10,38,321,23,15,32,066,34*7F            
$GPGSV,3,2,11,12,24,136,34,25,14,166,,05,09,129,23,13,04,069,*73                
$GPGSV,3,3,11,193,,,35,35,,,,32,,,34*44                                         
$GPRMC,072738.000,A,3110.0226,N,12124.0574,E,0.00,53.67,280921,,,A*57           
$GPVTG,53.67,T,,M,0.00,N,0.0,K,A*3A                                             
$GPGGA,072739.000,3110.0225,N,12124.0573,E,1,05,1.89,42.4,M,8.0,M,,0000*68      
$GPGSA,A,3,23,24,15,05,10,,,,,,,,2.10,1.89,0.91*0E                              
$GPGSV,3,1,11,23,74,345,32,24,66,044,30,10,39,321,24,15,32,066,33*77            
$GPGSV,3,2,11,12,24,136,33,25,14,166,,05,09,129,24,13,04,069,*73                
$GPGSV,3,3,11,193,,,33,35,,,,32,,,41*40                                         
$GPRMC,072739.000,A,3110.0225,N,12124.0573,E,0.00,53.67,280921,,,A*52           
$GPVTG,53.67,T,,M,0.00,N,0.0,K,A*3A                                             
$GPGGA,072740.000,3110.0225,N,12124.0574,E,1,05,1.89,42.2,M,8.0,M,,0000*67      
$GPGSA,A,3,23,24,15,05,10,,,,,,,,2.10,1.89,0.91*0E                              
$GPGSV,3,1,11,23,74,345,32,24,66,044,29,10,39,321,25,15,32,066,34*79            
$GPGSV,3,2,11,12,24,136,32,25,14,166,,05,09,129,23,13,04,069,*75                
$GPGSV,3,3,11,193,,,32,35,,,,32,,,29*4F                                         
$GPRMC,072740.000,A,3110.0225,N,12124.0574,E,0.00,53.67,280921,,,A*5B           
$GPVTG,53.67,T,,M,0.00,N,0.0,K,A*3A                                             
$GPGGA,072741.000,3110.0224,N,12124.0573,E,1,05,1.89,42.1,M,8.0,M,,0000*63      
$GPGSA,A,3,23,24,15,05,10,,,,,,,,2.10,1.89,0.91*0E                              
$GPGSV,3,1,11,23,74,345,32,24,66,044,27,10,39,321,24,15,32,066,33*71            
$GPGSV,3,2,11,12,24,136,22,25,14,166,,05,09,129,22,13,04,069,*75                
$GPGSV,3,3,11,193,,,32,35,,,,32,,,37*40                                         
$GPRMC,072741.000,A,3110.0224,N,12124.0573,E,0.00,53.67,280921,,,A*5C           
$GPVTG,53.67,T,,M,0.00,N,0.0,K,A*3A                                             
$GPGGA,072742.000,3110.0225,N,12124.0574,E,1,05,1.89,42.1,M,8.0,M,,0000*66      
$GPGSA,A,3,23,24,15,05,10,,,,,,,,2.10,1.89,0.91*0E                              
$GPGSV,3,1,11,23,74,345,30,24,66,044,27,10,39,321,24,15,32,066,24*75            
$GPGSV,3,2,11,12,24,136,22,25,14,166,,05,09,129,21,13,04,069,*76                
$GPGSV,3,3,11,193,,,30,35,,,,32,,,36*43                                         
$GPRMC,072742.000,A,3110.0225,N,12124.0574,E,0.00,53.67,280921,,,A*59           
$GPVTG,53.67,T,,M,0.00,N,0.0,K,A*3A                                             
$GPGGA,072743.000,3110.0215,N,12124.0572,E,1,05,1.89,40.9,M,8.0,M,,0000*68      
$GPGSA,A,3,23,24,15,05,10,,,,,,,,2.10,1.89,0.91*0E                              
$GPGSV,3,1,11,23,74,345,32,24,66,044,29,10,39,321,24,15,32,066,39*75            
$GPGSV,3,2,11,12,24,136,24,25,14,166,,05,09,129,21,13,04,069,*70                
$GPGSV,3,3,11,193,,,30,35,,,,32,,,35*40                                         
$GPRMC,072743.000,A,3110.0215,N,12124.0572,E,0.00,53.67,280921,,,A*5D           
$GPVTG,53.67,T,,M,0.00,N,0.0,K,A*3A                                             
$GPGGA,072744.000,3110.0211,N,12124.0572,E,1,05,1.89,40.3,M,8.0,M,,0000*61      
$GPGSA,A,3,23,24,15,05,10,,,,,,,,2.10,1.89,0.91*0E                              
$GPGSV,3,1,11,23,74,345,32,24,66,044,31,10,39,321,24,15,32,067,39*7D            
$GPGSV,3,2,11,12,24,136,25,25,14,166,,05,09,129,24,13,04,069,*74                
$GPGSV,3,3,11,193,,,29,36,,,,32,,,36*48                                         
$GPRMC,072744.000,A,3110.0211,N,12124.0572,E,0.00,53.67,280921,,,A*5E           
$GPVTG,53.67,T,,M,0.00,N,0.0,K,A*3A                                             
$GPGGA,072745.000,3110.0212,N,12124.0572,E,1,05,1.89,40.1,M,8.0,M,,0000*61      
$GPGSA,A,3,23,24,15,05,10,,,,,,,,2.10,1.89,0.91*0E                              
$GPGSV,3,1,11,23,74,345,32,24,66,044,31,10,39,321,25,15,32,067,28*7C            
$GPGSV,3,2,11,12,24,136,26,25,14,166,,05,09,129,21,13,04,069,*72                
$GPGSV,3,3,11,193,,,28,36,,,,32,,,34*4B                                         
$GPRMC,072745.000,A,3110.0212,N,12124.0572,E,0.00,53.67,280921,,,A*5C           
$GPVTG,53.67,T,,M,0.00,N,0.0,K,A*3A                                             
$GPGGA,072746.000,3110.0214,N,12124.0574,E,1,05,1.89,40.1,M,8.0,M,,0000*62      
$GPGSA,A,3,23,24,15,05,10,,,,,,,,2.10,1.89,0.91*0E                              
$GPGSV,3,1,11,23,74,345,25,24,66,044,29,10,39,321,23,15,32,067,35*79            
$GPGSV,3,2,11,12,24,136,24,25,14,166,,05,09,129,18,13,04,069,*7A                
$GPGSV,3,3,11,193,,,28,36,,,,32,,,24*4A                                         
$GPRMC,072746.000,A,3110.0214,N,12124.0574,E,0.00,53.67,280921,,,A*5F           
$GPVTG,53.67,T,,M,0.00,N,0.0,K,A*3A                                             
$GPGGA,072747.000,3110.0217,N,12124.0576,E,1,04,5.35,39.8,M,8.0,M,,0000*67      
$GPGSA,A,3,23,24,15,10,,,,,,,,,5.44,5.35,0.99*06                                
$GPGSV,3,1,11,23,74,345,24,24,66,044,30,10,39,321,23,15,32,067,36*73            
$GPGSV,3,2,11,12,24,136,22,25,14,166,,05,09,129,17,13,04,069,*73                
$GPGSV,3,3,11,193,,,28,36,,,,32,,,24*4A                                         
$GPRMC,072747.000,A,3110.0217,N,12124.0576,E,0.00,53.67,280921,,,A*5F           
$GPVTG,53.67,T,,M,0.00,N,0.0,K,A*3A                                             
$GPGGA,072748.000,3110.0217,N,12124.0578,E,1,05,1.89,39.3,M,8.0,M,,0000*6F      
$GPGSA,A,3,23,24,15,05,10,,,,,,,,2.10,1.89,0.91*0E                              
$GPGSV,3,1,11,23,74,345,25,24,66,044,31,10,39,321,23,15,32,067,35*70            
$GPGSV,3,2,11,12,24,136,23,25,14,166,,05,09,129,18,13,04,069,*7D                
$GPGSV,3,3,11,193,,,29,36,,,,32,,,34*4A                                         
$GPRMC,072748.000,A,3110.0217,N,12124.0578,E,0.00,53.67,280921,,,A*5E           
$GPVTG,53.67,T,,M,0.00,N,0.0,K,A*3A                                             
$GPGGA,072749.000,3110.0218,N,12124.0579,E,1,04,5.35,38.7,M,8.0,M,,0000*67      
$GPGSA,A,3,23,24,15,10,,,,,,,,,5.44,5.35,0.99*06                                
$GPGSV,3,1,11,23,74,345,33,24,66,044,32,10,39,321,23,15,32,067,42*74            
$GPGSV,3,2,11,12,24,136,31,25,14,166,,05,09,129,18,13,04,069,*7E                
$GPGSV,3,3,11,193,,,30,36,,,,32,,,34*42                                         
$GPRMC,072749.000,A,3110.0218,N,12124.0579,E,0.00,53.67,280921,,,A*51           
$GPVTG,53.67,T,,M,0.00,N,0.0,K,A*3A                                             
$GPGGA,072750.000,3110.0217,N,12124.0578,E,1,05,1.89,37.9,M,8.0,M,,0000*62      
$GPGSA,A,3,23,24,15,05,10,,,,,,,,2.10,1.89,0.91*0E                              
$GPGSV,3,1,11,23,74,345,25,24,66,044,33,10,39,321,24,15,32,067,42*75            
$GPGSV,3,2,11,12,24,136,30,25,14,166,,05,09,129,20,13,04,069,*74                
$GPGSV,3,3,11,193,,,29,36,,,,32,,,34*4A                                         
$GPRMC,072750.000,A,3110.0217,N,12124.0578,E,0.00,53.67,280921,,,A*57           
$GPVTG,53.67,T,,M,0.00,N,0.0,K,A*3A                                             
$GPGGA,072751.000,3110.0207,N,12124.0578,E,1,05,1.89,37.2,M,8.0,M,,0000*69      
$GPGSA,A,3,23,24,15,05,10,,,,,,,,2.10,1.89,0.91*0E                              
$GPGSV,3,1,11,23,74,345,27,24,66,044,33,10,39,321,23,15,32,067,41*73            
$GPGSV,3,2,11,12,24,136,30,25,14,166,,05,09,129,22,13,04,069,*76                
$GPGSV,3,3,11,193,,,20,38,,,,32,,,32*4B                                         
$GPRMC,072751.000,A,3110.0207,N,12124.0578,E,0.00,53.67,280921,,,A*57           
$GPVTG,53.67,T,,M,0.00,N,0.0,K,A*3A                                             
$GPGGA,072752.000,3110.0208,N,12124.0578,E,1,05,1.89,37.1,M,8.0,M,,0000*66      
$GPGSA,A,3,23,24,15,05,10,,,,,,,,2.10,1.89,0.91*0E                              
$GPGSV,3,1,11,23,74,346,26,24,66,044,32,10,39,321,15,15,32,067,26*74            
$GPGSV,3,2,11,12,24,136,23,25,14,166,,05,09,129,21,13,04,069,*77                
$GPGSV,3,3,11,193,,,20,38,,,,32,,,31*48                                         
$GPRMC,072752.000,A,3110.0208,N,12124.0578,E,0.00,53.67,280921,,,A*5B           
$GPVTG,53.67,T,,M,0.00,N,0.0,K,A*3A                                             
$GPGGA,072753.000,3110.0209,N,12124.0579,E,1,04,2.24,37.1,M,8.0,M,,0000*62      
$GPGSA,A,3,23,24,15,05,,,,,,,,,2.45,2.24,0.99*03                                
$GPGSV,3,1,11,23,74,346,26,24,65,044,31,10,39,321,16,15,32,067,38*78            
$GPGSV,3,2,11,12,24,136,35,25,14,166,,05,09,129,21,13,04,069,*70                
$GPGSV,3,3,11,193,,,36,38,,,,32,,,30*4E                                         
$GPRMC,072753.000,A,3110.0209,N,12124.0579,E,0.00,53.67,280921,,,A*5A           
$GPVTG,53.67,T,,M,0.00,N,0.0,K,A*3A                                             
$GPGGA,072754.000,3110.0205,N,12124.0576,E,1,05,1.89,36.5,M,8.0,M,,0000*66      
$GPGSA,A,3,23,24,15,05,10,,,,,,,,2.10,1.89,0.91*0E                              
$GPGSV,3,1,11,23,74,346,28,24,65,044,32,10,39,321,17,15,32,067,37*7B            
$GPGSV,3,2,11,12,24,136,30,25,15,166,,05,09,129,20,13,04,069,*75                
$GPGSV,3,3,11,193,,,34,38,,,,32,,,31*4D                                         
$GPRMC,072754.000,A,3110.0205,N,12124.0576,E,0.00,53.67,280921,,,A*5E           
$GPVTG,53.67,T,,M,0.00,N,0.0,K,A*3A                                             
$GPGGA,072755.000,3110.0200,N,12124.0575,E,1,05,1.89,35.5,M,8.0,M,,0000*62      
$GPGSA,A,3,23,24,15,05,10,,,,,,,,2.10,1.89,0.91*0E                              
$GPGSV,3,1,11,23,74,346,28,24,65,044,33,10,39,321,19,15,32,067,37*74            
$GPGSV,3,2,11,12,24,136,32,25,15,166,,05,09,129,21,13,04,069,*76                
$GPGSV,3,3,11,193,,,32,38,,,,32,,,33*49                                         
$GPRMC,072755.000,A,3110.0200,N,12124.0575,E,0.00,53.67,280921,,,A*59           
$GPVTG,53.67,T,,M,0.00,N,0.0,K,A*3A                                             
$GPGGA,072756.000,3110.0192,N,12124.0566,E,1,05,1.89,34.3,M,8.0,M,,0000*6C      
$GPGSA,A,3,23,24,15,05,10,,,,,,,,2.10,1.89,0.91*0E                              
$GPGSV,3,1,11,23,74,346,35,24,65,044,33,10,39,321,20,15,32,067,35*70            
$GPGSV,3,2,11,12,24,136,39,25,15,166,,05,09,129,22,13,04,069,*7E                
$GPGSV,3,3,11,193,,,32,38,,,,32,,,35*4F                                         
$GPRMC,072756.000,A,3110.0192,N,12124.0566,E,0.00,53.67,280921,,,A*50           
$GPVTG,53.67,T,,M,0.00,N,0.0,K,A*3A                                             
$GPGGA,072757.000,3110.0174,N,12124.0554,E,1,05,1.89,32.7,M,8.0,M,,0000*66      
$GPGSA,A,3,23,24,15,05,10,,,,,,,,2.10,1.89,0.91*0E                              
$GPGSV,3,1,11,23,74,346,37,24,65,044,33,10,39,321,21,15,32,067,27*70            
$GPGSV,3,2,11,12,24,136,38,25,15,166,,05,09,129,23,13,04,069,*7E                
$GPGSV,3,3,11,193,,,30,41,,,,32,,,34*42                                         
$GPRMC,072757.000,A,3110.0174,N,12124.0554,E,0.00,53.67,280921,,,A*58           
$GPVTG,53.67,T,,M,0.00,N,0.0,K,A*3A                                             
$GPGGA,072758.000,3110.0173,N,12124.0555,E,1,05,1.89,32.7,M,8.0,M,,0000*6F      
$GPGSA,A,3,23,24,15,05,10,,,,,,,,2.10,1.89,0.91*0E                              
$GPGSV,3,1,11,23,74,346,24,24,65,044,25,10,39,321,22,15,32,067,28*79            
$GPGSV,3,2,11,12,24,136,24,25,15,166,,05,09,129,23,13,04,069,*73                
$GPGSV,3,3,11,193,,,23,41,,,,32,,,26*43                                         
$GPRMC,072758.000,A,3110.0173,N,12124.0555,E,0.00,53.67,280921,,,A*51           
$GPVTG,53.67,T,,M,0.00,N,0.0,K,A*3A                                             
$GPGGA,072759.000,3110.0173,N,12124.0556,E,1,05,1.89,32.7,M,8.0,M,,0000*6D      
$GPGSA,A,3,23,24,15,05,10,,,,,,,,2.09,1.89,0.91*06                              
$GPGSV,3,1,11,23,74,346,25,24,65,044,25,10,39,321,22,15,32,067,27*77            
$GPGSV,3,2,11,12,24,136,23,25,15,166,,05,09,129,23,13,04,069,*74                
$GPGSV,3,3,11,193,,,24,41,,,,32,,,35*46                                         
$GPRMC,072759.000,A,3110.0173,N,12124.0556,E,0.00,53.67,280921,,,A*53           
$GPVTG,53.67,T,,M,0.00,N,0.0,K,A*3A                                             
$GPGGA,072800.000,3110.0167,N,12124.0553,E,1,05,1.89,32.1,M,8.0,M,,0000*68      
$GPGSA,A,3,23,24,15,05,10,,,,,,,,2.10,1.89,0.91*0E                              
$GPGSV,3,1,11,23,74,346,32,24,65,044,34,10,39,321,22,15,32,067,27*71            
$GPGSV,3,2,11,12,24,136,36,25,15,166,,05,09,129,26,13,04,069,*75                
$GPGSV,3,3,11,193,,,33,41,,,,32,,,33*46                                         
$GPRMC,072800.000,A,3110.0167,N,12124.0553,E,0.00,53.67,280921,,,A*50           
$GPVTG,53.67,T,,M,0.00,N,0.0,K,A*3A                                             
$GPGGA,072801.000,3110.0172,N,12124.0556,E,1,04,2.24,32.3,M,8.0,M,,0000*6F      
$GPGSA,A,3,23,24,15,05,,,,,,,,,2.45,2.24,0.99*03                                
$GPGSV,3,1,11,23,74,346,31,24,65,044,33,10,39,321,21,15,32,067,40*77            
$GPGSV,3,2,11,12,24,136,35,25,15,166,,05,09,129,30,13,04,069,*71                
$GPGSV,3,3,11,193,,,31,41,,,,32,,,40*40                                         
$GPRMC,072801.000,A,3110.0172,N,12124.0556,E,0.00,53.67,280921,,,A*50           
$GPVTG,53.67,T,,M,0.00,N,0.0,K,A*3A                                             
$GPGGA,072802.000,3110.0177,N,12124.0559,E,1,05,1.89,32.4,M,8.0,M,,0000*64      
$GPGSA,A,3,23,24,15,05,10,,,,,,,,2.10,1.89,0.91*0E                              
$GPGSV,3,1,11,23,74,346,30,24,65,044,31,10,39,321,22,15,32,067,38*78            
$GPGSV,3,2,11,12,24,136,35,25,15,166,,05,09,129,29,13,04,069,*79                
$GPGSV,3,3,11,193,,,31,41,,,,32,,,41*41                                         
$GPRMC,072802.000,A,3110.0177,N,12124.0559,E,0.00,53.67,280921,,,A*59           
$GPVTG,53.67,T,,M,0.00,N,0.0,K,A*3A                                             
$GPGGA,072803.000,3110.0179,N,12124.0557,E,1,05,1.89,32.7,M,8.0,M,,0000*66      
$GPGSA,A,3,23,24,15,05,10,,,,,,,,2.10,1.89,0.91*0E                              
$GPGSV,3,1,11,23,74,346,31,24,65,044,31,10,39,321,21,15,32,067,30*72            
$GPGSV,3,2,11,12,24,136,27,25,15,166,,05,09,129,33,13,04,069,*71                
$GPGSV,3,3,11,193,,,39,41,,,,32,,,43*4B                                         
$GPRMC,072803.000,A,3110.0179,N,12124.0557,E,0.00,53.67,280921,,,A*58           
$GPVTG,53.67,T,,M,0.00,N,0.0,K,A*3A                                             
$GPGGA,072804.000,3110.0183,N,12124.0560,E,1,05,1.89,33.3,M,8.0,M,,0000*65      
$GPGSA,A,3,23,24,15,05,10,,,,,,,,2.09,1.89,0.91*06                              
$GPGSV,3,1,11,23,74,346,30,24,65,044,29,10,39,321,20,15,32,067,29*73            
$GPGSV,3,2,11,12,24,136,34,25,15,166,,05,09,129,27,13,04,069,*76                
$GPGSV,3,3,11,193,,,30,43,,,,32,,,36*42                                         
$GPRMC,072804.000,A,3110.0183,N,12124.0560,E,0.00,53.67,280921,,,A*5E           
$GPVTG,53.67,T,,M,0.00,N,0.0,K,A*3A                                             
$GPGGA,072805.000,3110.0182,N,12124.0561,E,1,05,1.89,33.2,M,8.0,M,,0000*65      
$GPGSA,A,3,23,24,15,05,10,,,,,,,,2.09,1.89,0.91*06                              
$GPGSV,3,1,11,23,74,346,30,24,65,044,30,10,39,321,19,15,32,067,28*70            
$GPGSV,3,2,11,12,24,136,20,25,15,166,,05,09,129,17,13,04,069,*70                
$GPGSV,3,3,11,193,,,29,43,,,,32,,,35*49                                         
$GPRMC,072805.000,A,3110.0182,N,12124.0561,E,0.00,53.67,280921,,,A*5F           
$GPVTG,53.67,T,,M,0.00,N,0.0,K,A*3A                                             
$GPGGA,072806.000,3110.0183,N,12124.0563,E,1,05,1.89,33.2,M,8.0,M,,0000*65      
$GPGSA,A,3,23,24,15,05,10,,,,,,,,2.09,1.89,0.91*06                              
$GPGSV,3,1,11,23,74,346,30,24,65,044,30,10,39,321,20,15,32,067,27*75            
$GPGSV,3,2,11,12,24,136,29,25,15,166,,05,09,129,26,13,04,069,*7B                
$GPGSV,3,3,11,193,,,27,43,,,,32,,,35*47                                         
$GPRMC,072806.000,A,3110.0183,N,12124.0563,E,0.00,53.67,280921,,,A*5F           
$GPVTG,53.67,T,,M,0.00,N,0.0,K,A*3A                                             
$GPGGA,072807.000,3110.0183,N,12124.0565,E,1,05,1.89,32.9,M,8.0,M,,0000*68      
$GPGSA,A,3,23,24,15,05,10,,,,,,,,2.09,1.89,0.91*06                              
$GPGSV,3,1,11,23,74,346,29,24,65,044,37,10,39,321,21,15,32,067,34*79            
$GPGSV,3,2,11,12,24,136,41,25,15,166,,05,09,129,27,13,04,069,*74                
$GPGSV,3,3,11,193,,,28,43,,,,32,,,35*48                                         
$GPRMC,072807.000,A,3110.0183,N,12124.0565,E,0.00,53.67,280921,,,A*58           
$GPVTG,53.67,T,,M,0.00,N,0.0,K,A*3A                                             
$GPGGA,072808.000,3110.0179,N,12124.0562,E,1,05,1.89,32.4,M,8.0,M,,0000*68      
$GPGSA,A,3,23,24,15,05,10,,,,,,,,2.09,1.89,0.91*06                              
$GPGSV,3,1,11,23,74,346,31,24,65,044,38,10,39,321,21,15,32,067,25*7F            
$GPGSV,3,2,11,12,24,136,40,25,15,166,,05,09,129,26,13,04,069,*74                
$GPGSV,3,3,11,193,,,41,43,,,,32,,,34*46                                         
$GPRMC,072808.000,A,3110.0179,N,12124.0562,E,0.00,53.67,280921,,,A*55           
$GPVTG,53.67,T,,M,0.00,N,0.0,K,A*3A                                             
$GPGGA,072809.000,3110.0179,N,12124.0564,E,1,05,1.89,32.4,M,8.0,M,,0000*6F      
$GPGSA,A,3,23,24,15,05,10,,,,,,,,2.09,1.89,0.91*06                              
$GPGSV,3,1,11,23,74,346,31,24,65,044,39,10,39,321,21,15,32,067,24*7F            
$GPGSV,3,2,11,12,24,136,39,25,15,166,,05,09,130,27,13,04,069,*73                
$GPGSV,3,3,11,193,,,40,43,,,,32,,,32*41                                         
$GPRMC,072809.000,A,3110.0179,N,12124.0564,E,0.00,53.67,280921,,,A*52           
$GPVTG,53.67,T,,M,0.00,N,0.0,K,A*3A                                             
$GPGGA,072810.000,3110.0180,N,12124.0566,E,1,05,1.89,32.4,M,8.0,M,,0000*63      
$GPGSA,A,3,23,24,15,05,10,,,,,,,,2.09,1.89,0.91*06                              
$GPGSV,3,1,11,23,74,346,29,24,65,044,32,10,39,321,20,15,32,067,33*7A            
$GPGSV,3,2,11,12,24,136,37,25,15,166,,05,09,130,20,13,04,069,*7A                
$GPGSV,3,3,11,193,,,27,43,,,,32,,,31*43                                         
$GPRMC,072810.000,A,3110.0180,N,12124.0566,E,0.00,53.67,280921,,,A*5E           
$GPVTG,53.67,T,,M,0.00,N,0.0,K,A*3A                                             
$GPGGA,072811.000,3110.0181,N,12124.0568,E,1,05,1.89,32.4,M,8.0,M,,0000*6D      
$GPGSA,A,3,23,24,15,05,10,,,,,,,,2.09,1.89,0.91*06                              
$GPGSV,3,1,11,23,74,346,29,24,65,044,30,10,39,321,21,15,32,067,24*7F            
$GPGSV,3,2,11,12,24,136,38,25,15,166,,05,09,130,21,13,04,069,*74                
$GPGSV,3,3,11,193,,,28,45,,,,32,,,40*4C                                         
$GPRMC,072811.000,A,3110.0181,N,12124.0568,E,0.00,53.67,280921,,,A*50           
$GPVTG,53.67,T,,M,0.00,N,0.0,K,A*3A                                             
$GPGGA,072812.000,3110.0181,N,12124.0568,E,1,05,1.89,32.4,M,8.0,M,,0000*6E      
$GPGSA,A,3,23,24,15,05,10,,,,,,,,2.09,1.89,0.91*06                              
$GPGSV,3,1,11,23,74,346,29,24,65,044,30,10,39,321,21,15,32,067,26*7D            
$GPGSV,3,2,11,12,24,136,29,25,15,166,,05,09,130,21,13,04,069,*74                
$GPGSV,3,3,11,193,,,29,45,,,,32,,,30*4A                                         
$GPRMC,072812.000,A,3110.0181,N,12124.0568,E,0.00,53.67,280921,,,A*53           
$GPVTG,53.67,T,,M,0.00,N,0.0,K,A*3A                                             
$GPGGA,072813.000,3110.0181,N,12124.0569,E,1,05,1.89,32.4,M,8.0,M,,0000*6E      
$GPGSA,A,3,23,24,15,05,10,,,,,,,,2.09,1.89,0.91*06                              
$GPGSV,3,1,11,23,74,346,31,24,65,044,38,10,39,321,22,15,32,067,38*70            
$GPGSV,3,2,11,12,24,136,40,25,15,166,,05,09,130,22,13,04,069,*78                
$GPGSV,3,3,11,193,,,38,45,,,,32,,,29*42                                         
$GPRMC,072813.000,A,3110.0181,N,12124.0569,E,0.00,53.67,280921,,,A*53           
$GPVTG,53.67,T,,M,0.00,N,0.0,K,A*3A                                             
$GPGGA,072814.000,3110.0181,N,12124.0569,E,1,05,1.89,32.4,M,8.0,M,,0000*69      
$GPGSA,A,3,23,24,15,05,10,,,,,,,,2.09,1.89,0.91*06                              
$GPGSV,3,1,11,23,74,346,32,24,65,044,25,10,39,321,22,15,32,067,24*72            
$GPGSV,3,2,11,12,24,136,27,25,15,166,,05,09,130,22,13,04,069,*79                
$GPGSV,3,3,11,193,,,24,45,,,,32,,,30*47                                         
$GPRMC,072814.000,A,3110.0181,N,12124.0569,E,0.00,53.67,280921,,,A*54           
$GPVTG,53.67,T,,M,0.00,N,0.0,K,A*3A                                             
$GPGGA,072815.000,3110.0181,N,12124.0568,E,1,05,2.07,32.4,M,8.0,M,,0000*6C      
$GPGSA,A,3,23,24,15,05,10,,,,,,,,3.02,2.07,2.19*0B                              
$GPGSV,3,1,11,23,74,346,48,24,65,044,48,10,39,321,34,15,32,067,43*72            
$GPGSV,3,2,11,12,24,136,35,25,15,166,,05,09,130,32,13,04,069,*7B                
$GPGSV,3,3,11,193,,,38,45,,,,32,,,42*4F                                         
$GPRMC,072815.000,A,3110.0181,N,12124.0568,E,0.00,53.67,280921,,,A*54           
$GPVTG,53.67,T,,M,0.00,N,0.0,K,A*3A                                             
$GPGGA,072816.000,3110.0182,N,12124.0568,E,1,05,2.07,32.4,M,8.0,M,,0000*6C      
$GPGSA,A,3,23,24,15,05,10,,,,,,,,3.01,2.07,2.19*08                              
$GPGSV,3,1,11,23,74,346,32,24,65,044,41,10,39,321,33,15,32,067,41*73            
$GPGSV,3,2,11,12,24,136,34,25,15,166,,05,09,130,22,13,04,069,*7B                
$GPGSV,3,3,11,193,,,27,45,,,,32,,,30*44                                         
$GPRMC,072816.000,A,3110.0182,N,12124.0568,E,0.00,53.67,280921,,,A*54           
$GPVTG,53.67,T,,M,0.00,N,0.0,K,A*3A                                             
$GPGGA,072817.000,3110.0182,N,12124.0568,E,1,05,1.88,32.4,M,8.0,M,,0000*69      
$GPGSA,A,3,23,24,15,05,10,,,,,,,,2.09,1.88,0.91*07                              
$GPGSV,3,1,11,23,74,346,32,24,65,044,32,10,39,321,34,15,32,067,30*76            
$GPGSV,3,2,11,12,24,136,26,25,15,166,,05,09,130,30,13,03,069,*7C                
$GPGSV,3,3,11,193,,,36,45,,,,32,,,41*42                                         
$GPRMC,072817.000,A,3110.0182,N,12124.0568,E,0.00,53.67,280921,,,A*55           
$GPVTG,53.67,T,,M,0.00,N,0.0,K,A*3A                                             
$GPGGA,072818.000,3110.0182,N,12124.0568,E,1,05,2.07,32.4,M,8.0,M,,0000*62      
$GPGSA,A,3,23,24,15,05,10,,,,,,,,3.01,2.07,2.19*08                              
$GPGSV,3,1,11,23,74,346,40,24,65,044,34,10,39,321,33,15,32,067,31*73            
$GPGSV,3,2,11,12,24,136,27,25,15,166,,05,09,130,28,13,03,069,*74                
$GPGSV,3,3,11,193,,,29,46,,,,32,,,40*4E                                         
$GPRMC,072818.000,A,3110.0182,N,12124.0568,E,0.00,53.67,280921,,,A*5A           
$GPVTG,53.67,T,,M,0.00,N,0.0,K,A*3A                                             
$GPGGA,072819.000,3110.0182,N,12124.0568,E,1,05,2.07,32.4,M,8.0,M,,0000*63      
$GPGSA,A,3,23,24,15,05,10,,,,,,,,3.01,2.07,2.19*08                              
$GPGSV,3,1,11,23,74,346,39,24,65,044,33,10,39,321,34,15,31,067,32*7D            
$GPGSV,3,2,11,12,24,136,27,25,15,166,,05,09,130,26,13,03,069,*7A                
$GPGSV,3,3,11,193,,,38,46,,,,32,,,41*4F                                         
$GPRMC,072819.000,A,3110.0182,N,12124.0568,E,0.00,53.67,280921,,,A*5B           
$GPVTG,53.67,T,,M,0.00,N,0.0,K,A*3A                                             
$GPGGA,072820.000,3110.0182,N,12124.0568,E,1,05,2.07,32.4,M,8.0,M,,0000*69      
$GPGSA,A,3,23,24,15,05,10,,,,,,,,3.02,2.07,2.19*0B                              
$GPGSV,3,1,11,23,74,346,39,24,65,044,35,10,39,321,34,15,31,067,34*7D            
$GPGSV,3,2,11,12,24,136,28,25,15,166,,05,09,130,27,13,03,069,*74                
$GPGSV,3,3,11,193,,,36,46,,,,32,,,31*46                                         
$GPRMC,072820.000,A,3110.0182,N,12124.0568,E,0.00,53.67,280921,,,A*51           
$GPVTG,53.67,T,,M,0.00,N,0.0,K,A*3A                                             
$GPGGA,072821.000,3110.0182,N,12124.0568,E,1,05,2.07,32.4,M,8.0,M,,0000*68      
$GPGSA,A,3,23,24,15,05,10,,,,,,,,3.01,2.07,2.19*08                              
$GPGSV,3,1,11,23,74,346,37,24,65,044,34,10,39,321,33,15,31,067,34*75            
$GPGSV,3,2,11,12,24,136,29,25,15,166,,05,09,130,27,13,03,069,*75                
$GPGSV,3,3,11,193,,,25,46,,,,32,,,44*46                                         
$GPRMC,072821.000,A,3110.0182,N,12124.0568,E,0.00,53.67,280921,,,A*50           
$GPVTG,53.67,T,,M,0.00,N,0.0,K,A*3A                                             
$GPGGA,072822.000,3110.0182,N,12124.0568,E,1,05,2.07,32.4,M,8.0,M,,0000*6B      
$GPGSA,A,3,23,24,15,05,10,,,,,,,,3.01,2.07,2.19*08                              
$GPGSV,3,1,11,23,74,346,39,24,65,044,34,10,39,321,34,15,31,067,27*7E            
$GPGSV,3,2,11,12,24,136,29,25,15,166,,05,09,130,26,13,03,069,*74                
$GPGSV,3,3,11,193,,,33,46,,,,32,,,43*46                                         
$GPRMC,072822.000,A,3110.0182,N,12124.0568,E,0.00,53.67,280921,,,A*53           
$GPVTG,53.67,T,,M,0.00,N,0.0,K,A*3A                                             
$GPGGA,072823.000,3110.0182,N,12124.0568,E,1,05,2.07,32.4,M,8.0,M,,0000*6A      
$GPGSA,A,3,23,24,15,05,10,,,,,,,,3.01,2.07,2.19*08                              
$GPGSV,3,1,11,23,74,346,40,24,65,044,34,10,39,321,35,15,31,067,27*71            
$GPGSV,3,2,11,12,24,136,30,25,15,166,,05,09,130,19,13,03,069,*70                
$GPGSV,3,3,11,193,,,33,46,,,,32,,,42*47                                         
$GPRMC,072823.000,A,3110.0182,N,12124.0568,E,0.00,53.67,280921,,,A*52           
$GPVTG,53.67,T,,M,0.00,N,0.0,K,A*3A                                             
$GPGGA,072824.000,3110.0182,N,12124.0568,E,1,05,2.07,32.4,M,8.0,M,,0000*6D      
$GPGSA,A,3,23,24,15,05,10,,,,,,,,3.01,2.07,2.19*08                              
$GPGSV,3,1,11,23,74,346,40,24,65,044,34,10,39,321,36,15,31,067,27*72            
$GPGSV,3,2,11,12,24,136,30,25,15,166,,05,09,130,19,13,03,069,*70                
$GPGSV,3,3,11,193,,,33,47,,,,32,,,41*45                                         
$GPRMC,072824.000,A,3110.0182,N,12124.0568,E,0.00,53.67,280921,,,A*55           
$GPVTG,53.67,T,,M,0.00,N,0.0,K,A*3A                                             
$GPGGA,072825.000,3110.0182,N,12124.0568,E,1,06,1.82,32.4,M,8.0,M,,0000*61      
$GPGSA,A,3,23,24,15,05,10,32,,,,,,,2.67,1.82,1.96*02                            
$GPGSV,3,1,11,23,74,346,40,24,65,044,34,10,39,321,37,15,31,067,27*73            
$GPGSV,3,2,11,12,24,136,31,32,18,279,41,25,15,166,,05,09,130,20*74              
$GPGSV,3,3,11,13,03,069,,193,,,33,47,,,*7F                                      
$GPRMC,072825.000,A,3110.0182,N,12124.0568,E,0.00,53.67,280921,,,A*54           
$GPVTG,53.67,T,,M,0.00,N,0.0,K,A*3A                                             
$GPGGA,072826.000,3110.0182,N,12124.0568,E,1,06,1.82,32.4,M,8.0,M,,0000*62      
$GPGSA,A,3,23,24,15,05,10,32,,,,,,,2.67,1.82,1.96*02                            
$GPGSV,3,1,11,23,74,346,40,24,65,044,34,10,39,321,37,15,31,067,26*72            
$GPGSV,3,2,11,12,24,136,30,32,18,279,40,25,15,166,,05,09,130,21*75              
$GPGSV,3,3,11,13,03,069,,193,,,33,47,,,*7F                                      
$GPRMC,072826.000,A,3110.0182,N,12124.0568,E,0.00,53.67,280921,,,A*57           
$GPVTG,53.67,T,,M,0.00,N,0.0,K,A*3A                                             
$GPGGA,072827.000,3110.0182,N,12124.0568,E,1,06,1.82,32.4,M,8.0,M,,0000*63      
$GPGSA,A,3,23,24,15,05,10,32,,,,,,,2.67,1.82,1.95*01                            
$GPGSV,3,1,11,23,74,346,40,24,65,044,34,10,39,321,38,15,31,067,25*7E            
$GPGSV,3,2,11,12,24,136,31,32,18,279,40,25,15,166,,05,09,130,22*77              
$GPGSV,3,3,11,13,03,069,,193,,,33,47,,,*7F                                      
$GPRMC,072827.000,A,3110.0182,N,12124.0568,E,0.00,53.67,280921,,,A*56           
$GPVTG,53.67,T,,M,0.00,N,0.0,K,A*3A                                             
$GPGGA,072828.000,3110.0182,N,12124.0568,E,1,06,1.82,32.4,M,8.0,M,,0000*6C      
$GPGSA,A,3,23,24,15,05,10,32,,,,,,,2.67,1.82,1.96*02                            
$GPGSV,3,1,11,23,74,346,40,24,65,044,34,10,39,321,38,15,31,067,25*7E            
$GPGSV,3,2,11,12,24,136,32,32,18,279,40,25,15,166,,05,09,130,22*74              
$GPGSV,3,3,11,13,03,069,,193,,,33,47,,,*7F                                      
$GPRMC,072828.000,A,3110.0182,N,12124.0568,E,0.00,53.67,280921,,,A*59           
$GPVTG,53.67,T,,M,0.00,N,0.0,K,A*3A                                             
$GPGGA,072829.000,3110.0182,N,12124.0568,E,1,06,1.82,32.4,M,8.0,M,,0000*6D      
$GPGSA,A,3,23,24,15,05,10,32,,,,,,,2.67,1.82,1.95*01                            
$GPGSV,3,1,11,23,74,346,40,24,65,044,34,10,39,321,38,15,31,067,25*7E            
$GPGSV,3,2,11,12,24,136,32,32,18,279,40,25,15,166,,05,09,130,23*75              
$GPGSV,3,3,11,13,03,069,,193,,,33,47,,,*7F                                      
$GPRMC,072829.000,A,3110.0182,N,12124.0568,E,0.00,53.67,280921,,,A*58           
$GPVTG,53.67,T,,M,0.00,N,0.0,K,A*3A                                             
$GPGGA,072830.000,3110.0182,N,12124.0568,E,1,06,1.82,32.4,M,8.0,M,,0000*65      
$GPGSA,A,3,23,24,15,05,10,32,,,,,,,2.67,1.82,1.95*01                            
$GPGSV,3,1,11,23,74,346,40,24,65,044,34,10,39,321,38,15,31,067,26*7D            
$GPGSV,3,2,11,12,24,136,32,32,18,279,40,25,15,166,,05,09,130,24*72              
$GPGSV,3,3,11,13,03,069,,193,,,33,49,,,*71                                      
$GPRMC,072830.000,A,3110.0182,N,12124.0568,E,0.00,53.67,280921,,,A*50           
$GPVTG,53.67,T,,M,0.00,N,0.0,K,A*3A                                             
$GPGGA,072831.000,3110.0182,N,12124.0568,E,1,06,1.82,32.4,M,8.0,M,,0000*64      
$GPGSA,A,3,23,24,15,05,10,32,,,,,,,2.67,1.82,1.96*02                            
$GPGSV,3,1,11,23,74,346,40,24,65,044,34,10,39,321,37,15,31,067,26*72            
$GPGSV,3,2,11,12,24,136,32,32,18,279,39,25,15,166,,05,09,130,24*7C              
$GPGSV,3,3,11,13,03,069,,193,,,33,49,,,*71                                      
$GPRMC,072831.000,A,3110.0182,N,12124.0568,E,0.00,53.67,280921,,,A*51           
$GPVTG,53.67,T,,M,0.00,N,0.0,K,A*3A                                             
$GPGGA,072832.000,3110.0182,N,12124.0568,E,1,06,1.82,32.4,M,8.0,M,,0000*67      
$GPGSA,A,3,23,24,15,05,10,32,,,,,,,2.67,1.82,1.96*02                            
$GPGSV,3,1,11,23,74,346,40,24,65,044,34,10,39,321,37,15,31,067,26*72            
$GPGSV,3,2,11,12,24,136,33,32,18,279,39,25,15,166,,05,09,130,25*7C              
$GPGSV,3,3,11,13,03,069,,193,,,33,49,,,*71                                      
$GPRMC,072832.000,A,3110.0182,N,12124.0568,E,0.00,53.67,280921,,,A*52           
$GPVTG,53.67,T,,M,0.00,N,0.0,K,A*3A                                             
$GPGGA,072833.000,3110.0182,N,12124.0568,E,1,06,1.82,32.4,M,8.0,M,,0000*66      
$GPGSA,A,3,23,24,15,05,10,32,,,,,,,2.67,1.82,1.96*02                            
$GPGSV,3,1,11,23,74,346,40,24,65,044,34,10,39,321,36,15,31,067,26*73            
$GPGSV,3,2,11,12,24,136,33,32,18,279,38,25,15,166,,05,09,130,26*7E              
$GPGSV,3,3,11,13,03,069,,193,,,33,49,,,*71                                      
$GPRMC,072833.000,A,3110.0182,N,12124.0568,E,0.00,53.67,280921,,,A*53           
$GPVTG,53.67,T,,M,0.00,N,0.0,K,A*3A                                             
$GPGGA,072834.000,3110.0182,N,12124.0568,E,1,06,1.82,32.4,M,8.0,M,,0000*61      
$GPGSA,A,3,23,24,15,05,10,32,,,,,,,2.67,1.82,1.96*02                            
$GPGSV,3,1,11,23,74,346,40,24,65,044,34,10,39,321,36,15,31,067,26*73            
$GPGSV,3,2,11,12,24,136,33,32,18,279,39,25,15,166,,05,09,130,26*7F              
$GPGSV,3,3,11,13,03,069,,193,,,34,49,,,*76                                      
$GPRMC,072834.000,A,3110.0182,N,12124.0568,E,0.00,53.67,280921,,,A*54           
$GPVTG,53.67,T,,M,0.00,N,0.0,K,A*3A                                             
$GPGGA,072835.000,3110.0182,N,12124.0568,E,1,06,1.82,32.4,M,8.0,M,,0000*60      
$GPGSA,A,3,23,24,15,05,10,32,,,,,,,2.67,1.82,1.95*01                            
CTRL-A Z for help | 9600 8N1 | NOR | Minicom 2.7.1 | VT102 | Offline | ttyUSB0 
,40,24,65,044,34,10,39,321,36,15,31,067,26*73
$GPGSV,3,2,11,12,24,136,33,32,18,279,39,25,15,166,,05,09,130,26*7F
$GPGSV,3,3,11,13,03,069,,193,,,34,49,,,*76
$GPRMC,072835.000,A,3110.0182,N,12124.0568,E,0.00,53.67,280921,,,A*55
$GPVTG,53.67,T,,M,0.00,N,0.0,K,A*3A
$GPGGA,072836.000,3110.0182,N,12124.0568,E,1,06,1.82,32.4,M,8.0,M,,0000*63
$GPGSA,A,3,23,24,15,05,10,32,,,,,,,2.67,1.82,1.96*02
$GPGSV,3,1,11,23,74,346,40,24,65,044,34,42,48,146,,10,39,321,36*79
$GPGSV,3,2,11,15,31,067,27,12,24,136,34,32,18,279,39,25,15,166,*70
$GPGSV,3,3,11,05,09,130,26,13,03,069,,193,,,34*41
$GPRMC,072836.000,A,3110.0182,N,12124.0568,E,0.00,53.67,280921,,,A*56
$GPVTG,53.67,T,,M,0.00,N,0.0,K,A*3A
$GPGGA,072837.000,3110.0182,N,12124.0568,E,1,06,1.82,32.4,M,8.0,M,,0000*62
$GPGSA,A,3,23,24,15,05,10,32,,,,,,,2.67,1.82,1.96*02
$GPGSV,3,1,11,23,74,346,40,24,65,044,34,42,48,146,,10,39,321,36*79
$GPGSV,3,2,11,15,31,067,28,12,24,136,34,32,18,279,39,25,15,166,*7F
$GPGSV,3,3,11,05,09,130,27,13,03,069,,193,,,34*40
$GPRMC,072837.000,A,3110.0182,N,12124.0568,E,0.00,53.67,280921,,,A*57
$GPVTG,53.67,T,,M,0.00,N,0.0,K,A*3A
$GPGGA,072838.000,3110.0166,N,12124.0553,E,1,06,1.82,30.2,M,8.0,M,,0000*6B
$GPGSA,A,3,23,24,15,05,10,32,,,,,,,2.67,1.82,1.95*01
$GPGSV,3,1,11,23,74,346,40,24,65,044,34,42,48,146,,10,39,321,36*79
$GPGSV,3,2,11,15,31,067,28,12,24,136,35,32,18,279,40,25,15,166,*70
$GPGSV,3,3,11,05,09,130,27,13,03,069,,193,,,35*41                               
$GPRMC,072838.000,A,3110.0166,N,12124.0553,E,0.00,53.67,280921,,,A*5A           
$GPVTG,53.67,T,,M,0.00,N,0.0,K,A*3A                                             
$GPGGA,072839.000,3110.0143,N,12124.0536,E,1,06,1.49,27.6,M,8.0,M,,0000*6B      
$GPGSA,A,3,23,24,15,05,10,32,,,,,,,1.73,1.49,0.89*0C                            
$GPGSV,3,1,11,23,74,346,40,24,65,044,34,42,48,146,,10,39,321,36*79              
$GPGSV,3,2,11,15,31,067,28,12,24,136,35,32,18,279,41,25,15,166,*71              
$GPGSV,3,3,11,05,09,130,27,13,03,069,,193,,,35*41                               
$GPRMC,072839.000,A,3110.0143,N,12124.0536,E,0.00,53.67,280921,,,A*5F           
$GPVTG,53.67,T,,M,0.00,N,0.0,K,A*3A                                             
$GPGGA,072840.000,3110.0128,N,12124.0523,E,1,06,1.49,25.4,M,8.0,M,,0000*6C      
$GPGSA,A,3,23,24,15,05,10,32,,,,,,,1.74,1.49,0.89*0B                            
$GPGSV,3,1,11,23,74,346,40,24,65,044,34,42,48,146,,10,39,321,36*79              
$GPGSV,3,2,11,15,31,067,28,12,24,136,35,32,18,279,41,25,15,166,*71              
$GPGSV,3,3,11,05,09,130,27,13,03,069,,193,,,35*41                               
$GPRMC,072840.000,A,3110.0128,N,12124.0523,E,0.00,53.67,280921,,,A*58           
$GPVTG,53.67,T,,M,0.00,N,0.0,K,A*3A                                             
$GPGGA,072841.000,3110.0119,N,12124.0513,E,1,06,1.49,24.1,M,8.0,M,,0000*68      
$GPGSA,A,3,23,24,15,05,10,32,,,,,,,1.74,1.49,0.89*0B                            
$GPGSV,3,1,11,23,74,346,40,24,65,044,34,42,48,146,,10,39,321,36*79              
$GPGSV,3,2,11,15,31,067,28,12,24,136,35,32,18,279,42,25,15,166,*72              
$GPGSV,3,3,11,05,09,130,27,13,03,069,,193,,,35*41                               
$GPRMC,072841.000,A,3110.0119,N,12124.0513,E,0.00,53.67,280921,,,A*58           
$GPVTG,53.67,T,,M,0.00,N,0.0,K,A*3A                                             
$GPGGA,072842.000,3110.0114,N,12124.0505,E,1,06,1.49,23.1,M,8.0,M,,0000*66      
$GPGSA,A,3,23,24,15,05,10,32,,,,,,,1.74,1.49,0.89*0B                            
$GPGSV,3,1,11,23,74,346,40,24,65,044,34,42,48,146,,10,39,321,36*79              
$GPGSV,3,2,11,15,31,067,28,12,24,136,35,32,18,279,42,25,15,166,*72              
$GPGSV,3,3,11,05,09,130,27,13,03,069,,193,,,35*41                               
$GPRMC,072842.000,A,3110.0114,N,12124.0505,E,0.00,53.67,280921,,,A*51           
$GPVTG,53.67,T,,M,0.00,N,0.0,K,A*3A                                             
$GPGGA,072843.000,3110.0112,N,12124.0499,E,1,06,1.49,22.3,M,8.0,M,,0000*66      
$GPGSA,A,3,23,24,15,05,10,32,,,,,,,1.74,1.49,0.89*0B                            
$GPGSV,3,1,11,23,74,346,40,24,65,044,34,42,48,146,,10,39,321,36*79              
$GPGSV,3,2,11,15,31,067,28,12,24,136,35,32,18,279,42,25,15,166,*72              
$GPGSV,3,3,11,05,09,130,28,13,03,069,,193,,,35*4E                               
$GPRMC,072843.000,A,3110.0112,N,12124.0499,E,0.00,53.67,280921,,,A*52           
$GPVTG,53.67,T,,M,0.00,N,0.0,K,A*3A                                             
$GPGGA,072844.000,3110.0110,N,12124.0495,E,1,06,1.49,21.8,M,8.0,M,,0000*67      
$GPGSA,A,3,23,24,15,05,10,32,,,,,,,1.74,1.49,0.89*0B                            
$GPGSV,3,1,11,23,74,346,39,24,65,044,34,42,48,146,,10,39,321,35*74              
$GPGSV,3,2,11,15,31,067,28,12,24,136,35,32,18,279,42,25,15,166,*72              
$GPGSV,3,3,11,05,09,130,28,13,03,069,,193,,,35*4E                               
$GPRMC,072844.000,A,3110.0110,N,12124.0495,E,0.00,53.67,280921,,,A*5B           
$GPVTG,53.67,T,,M,0.00,N,0.0,K,A*3A                                             
$GPGGA,072845.000,3110.0111,N,12124.0491,E,1,06,1.49,21.4,M,8.0,M,,0000*6F      
$GPGSA,A,3,23,24,15,05,10,32,,,,,,,1.74,1.49,0.89*0B                            
$GPGSV,3,1,11,23,74,346,39,24,65,044,33,50,45,139,,10,39,321,35*75              
$GPGSV,3,2,11,15,31,067,29,12,24,136,35,32,18,279,43,25,15,166,*72              
$GPGSV,3,3,11,05,09,130,28,13,03,069,,193,,,35*4E                               
$GPRMC,072845.000,A,3110.0111,N,12124.0491,E,0.00,53.67,280921,,,A*5F           
$GPVTG,53.67,T,,M,0.00,N,0.0,K,A*3A                                             
CTRL-A Z for help | 9600 8N1 | NOR | Minicom 2.7.1 | VT102 | Offline | ttyUSB0 
jiayi@jiayi-ThinkPad-E470c:~/$ sudo minicom -s
























Welcome to minicom 2.7.1

OPTIONS: I18n                                                                
Compiled on Dec 23 2019, 02:06:26.                                           
Port /dev/ttyUSB0, 15:28:45                                                  
                                                                             
Press CTRL-A Z for help on special keys                                      
                                                                             
)bbbbbbbbbR                                            
                                  5                                          
                                   $GPGSV,3,3,11,05,09,130,30,13,03,069,,36,,,*F
$GPRMC,072927.000,A,3110.0120,N,12124.0478,E,0.00,53.67,280921,,,A*5F        
$GPVTG,53.67,T,,M,0.00,N,0.0,K,A*3A                                          
$GPGGA,072928.000,3110.0120,N,12124.0478,E,1,08,1.49,21.9,M,8.0,M,,0000*63
$GPGSA,A,3,23,24,15,05,12,10,193,32,,,,,2.21,1.49,1.63*35   
$GPGSV,3,1,11,23,74,346,30,193,68,068,35,24,65,043,35,10,39,321,39*43
$GPGSV,3,2,11,15,31,067,37,12,24,136,32,32,19,279,42,25,15,166,*7A
$GPGSV,3,3,11,05,09,130,30,13,03,069,,36,,,*7F              
$GPRMC,072928.000,A,3110.0120,N,12124.0478,E,0.00,53.67,280921,,,A*50
$GPVTG,53.67,T,,M,0.00,N,0.0,K,A*3A
$GPGGA,072929.000,3110.0120,N,12124.0478,E,1,08,1.49,21.9,M,8.0,M,,0000*62
$GPGSA,A,3,23,24,15,05,12,10,193,32,,,,,2.21,1.49,1.64*32
$GPGSV,3,1,11,23,74,346,30,193,68,068,35,24,65,043,35,10,39,321,39*43           
$GPGSV,3,2,11,15,31,067,37,12,24,136,32,32,19,279,41,25,15,166,*79              
$GPGSV,3,3,11,05,09,130,30,13,03,069,,36,,,*7F                                  
$GPRMC,072929.000,A,3110.0120,N,12124.0478,E,0.00,53.67,280921,,,A*51           
$GPVTG,53.67,T,,M,0.00,N,0.0,K,A*3A                                             
$GPGGA,072930.000,3110.0120,N,12124.0478,E,1,08,1.48,21.9,M,8.0,M,,0000*6B      
$GPGSA,A,3,23,24,15,05,12,10,193,32,,,,,2.21,1.48,1.64*33                       
$GPGSV,3,1,11,23,74,346,31,193,68,068,35,24,65,043,35,10,39,321,39*42           
$GPGSV,3,2,11,15,31,067,37,12,24,136,31,32,19,279,41,25,15,166,*7A              
$GPGSV,3,3,11,05,09,130,30,13,03,069,,36,,,*7F                                  
$GPRMC,072930.000,A,3110.0120,N,12124.0478,E,0.00,53.67,280921,,,A*59           
$GPVTG,53.67,T,,M,0.00,N,0.0,K,A*3A                                             
$GPGGA,072931.000,3110.0120,N,12124.0478,E,1,08,1.49,21.9,M,8.0,M,,0000*6B      
$GPGSA,A,3,23,24,15,05,12,10,193,32,,,,,2.21,1.49,1.64*32                       
$GPGSV,3,1,11,23,74,346,31,193,68,068,35,24,65,043,35,10,39,321,39*42           
$GPGSV,3,2,11,15,31,067,37,12,24,136,31,32,19,279,41,25,15,166,*7A              
$GPGSV,3,3,11,05,09,130,30,13,03,069,,36,,,*7F                                  
$GPRMC,072931.000,A,3110.0120,N,12124.0478,E,0.00,53.67,280921,,,A*58           
$GPVTG,53.67,T,,M,0.00,N,0.0,K,A*3A                                             
$GPGGA,072932.000,3110.0120,N,12124.0478,E,1,08,1.49,21.9,M,8.0,M,,0000*68      
$GPGSA,A,3,23,24,15,05,12,10,193,32,,,,,2.21,1.49,1.64*32                       
$GPGSV,3,1,11,23,74,346,31,193,68,068,34,24,65,043,34,10,39,321,38*43           
$GPGSV,3,2,11,15,31,067,37,12,25,136,30,32,19,279,40,25,15,166,*7B              
$GPGSV,3,3,11,05,09,130,30,13,03,069,,36,,,*7F                                  
$GPRMC,072932.000,A,3110.0120,N,12124.0478,E,0.00,53.67,280921,,,A*5B           
$GPVTG,53.67,T,,M,0.00,N,0.0,K,A*3A                                             
$GPGGA,072933.000,3110.0120,N,12124.0478,E,1,08,1.48,21.9,M,8.0,M,,0000*68      
$GPGSA,A,3,23,24,15,05,12,10,193,32,,,,,2.21,1.48,1.64*33                       
$GPGSV,3,1,11,23,74,346,32,193,68,068,34,24,65,043,34,10,39,321,38*40           
$GPGSV,3,2,11,15,31,067,37,12,25,136,30,32,19,279,40,25,15,166,*7B              
$GPGSV,3,3,11,05,09,130,30,13,03,069,,38,,,*71                                  
$GPRMC,072933.000,A,3110.0120,N,12124.0478,E,0.00,53.67,280921,,,A*5A           
$GPVTG,53.67,T,,M,0.00,N,0.0,K,A*3A                                             
$GPGGA,072934.000,3110.0120,N,12124.0478,E,1,08,1.49,21.9,M,8.0,M,,0000*6E      
$GPGSA,A,3,23,24,15,05,12,10,193,32,,,,,2.21,1.49,1.63*35                       
$GPGSV,3,1,11,23,74,346,31,193,68,068,34,24,65,043,34,10,39,321,37*4C           
