$GPGSV,3,1,11,24,71,049,21,23,68,341,23,18,47,219,29,50,45,139,*79
$GPGSV,3,2,11,15,35,062,17,10,34,319,18,12,20,140,23,32,15,274,24*7B
$GPGSV,3,3,11,05,13,126,16,25,10,169,13,13,07,065,*40
$GPRMC,071200.000,A,3110.0275,N,12123.9873,E,18.70,168.24,290921,,,A*59
$GPVTG,168.24,T,,M,18.70,N,34.6,K,A*0B
$GPGGA,071201.000,3110.0224,N,12123.9888,E,1,08,1.01,5.8,M,8.0,M,,0000*51
$GPGSA,A,3,23,15,24,18,12,05,10,32,,,,,1.31,1.01,0.83*06
$GPGSV,3,1,11,24,71,049,21,23,68,341,24,18,47,219,28,50,45,139,27*7A
$GPGSV,3,2,11,15,35,062,19,10,34,319,18,12,20,140,21,32,15,274,20*73
$GPGSV,3,3,11,05,13,126,12,25,10,169,13,13,07,065,*44
$GPRMC,071201.000,A,3110.0224,N,12123.9888,E,18.73,168.16,290921,,,A*5A
$GPVTG,168.16,T,,M,18.73,N,34.7,K,A*08
$GPGGA,071202.000,3110.0176,N,12123.9905,E,1,08,1.01,5.7,M,8.0,M,,0000*5D
$GPGSA,A,3,23,15,24,18,12,05,10,32,,,,,1.31,1.01,0.83*06
$GPGSV,3,1,11,24,71,049,21,23,68,341,23,18,47,219,19,50,45,139,28*70
$GPGSV,3,2,11,15,35,062,21,10,34,319,18,12,20,140,20,32,15,274,28*71
$GPGSV,3,3,11,05,13,126,13,25,10,169,12,13,07,065,*44
$GPRMC,071202.000,A,3110.0176,N,12123.9905,E,18.37,167.19,290921,,,A*59
$GPVTG,167.19,T,,M,18.37,N,34.0,K,A*0F
$GPGGA,071203.000,3110.0128,N,12123.9921,E,1,08,1.01,5.7,M,8.0,M,,0000*51
$GPGSA,A,3,23,15,24,18,12,05,10,32,,,,,1.31,1.01,0.83*06
$GPGSV,3,1,11,24,71,049,20,23,68,341,22,18,47,219,17,50,45,139,29*7F
$GPGSV,3,2,11,15,35,062,23,10,34,319,18,12,20,140,18,32,15,274,20*70
$GPGSV,3,3,11,05,13,126,15,25,10,169,12,13,07,065,*42
$GPRMC,071203.000,A,3110.0128,N,12123.9921,E,18.12,166.07,290921,,,A*5C
$GPVTG,166.07,T,,M,18.12,N,33.6,K,A*07
$GPGGA,071204.000,3110.0083,N,12123.9940,E,1,08,1.01,5.7,M,8.0,M,,0000*51
$GPGSA,A,3,23,15,24,18,12,05,10,32,,,,,1.31,1.01,0.83*06
$GPGSV,3,1,11,24,71,049,19,23,68,341,23,18,47,219,16,50,45,139,29*75
$GPGSV,3,2,11,15,35,062,30,10,34,319,18,12,20,140,17,32,15,274,20*7D
$GPGSV,3,3,11,05,13,126,14,25,10,169,12,13,07,065,*43
$GPRMC,071204.000,A,3110.0083,N,12123.9940,E,17.87,165.21,290921,,,A*58
$GPVTG,165.21,T,,M,17.87,N,33.1,K,A*04
$GPGGA,071205.000,3110.0035,N,12123.9955,E,1,08,1.01,5.8,M,8.0,M,,0000*56
$GPGSA,A,3,23,15,24,18,12,05,10,32,,,,,1.31,1.01,0.83*06
$GPGSV,3,1,11,24,71,049,18,23,68,341,22,18,47,219,12,50,45,139,29*71
$GPGSV,3,2,11,15,35,062,29,10,34,319,19,12,20,140,16,32,15,274,21*74
$GPGSV,3,3,11,05,13,126,21,25,10,169,12,13,07,065,*45
$GPRMC,071205.000,A,3110.0035,N,12123.9955,E,17.69,165.28,290921,,,A*59
$GPVTG,165.28,T,,M,17.69,N,32.8,K,A*05
$GPGGA,071206.000,3109.9987,N,12123.9969,E,1,08,1.01,5.8,M,8.0,M,,0000*5B
$GPGSA,A,3,23,15,24,18,12,05,10,32,,,,,1.31,1.01,0.83*06
$GPGSV,3,1,11,24,71,049,19,23,68,341,22,18,47,219,13,50,45,139,29*71
$GPGSV,3,2,11,15,35,062,17,10,34,319,19,12,20,140,16,32,15,274,22*7A
$GPGSV,3,3,11,05,13,126,20,25,10,169,12,13,07,065,*44
$GPRMC,071206.000,A,3109.9987,N,12123.9969,E,17.51,165.62,290921,,,A*51
$GPVTG,165.62,T,,M,17.51,N,32.4,K,A*0C
$GPGGA,071207.000,3109.9938,N,12123.9983,E,1,08,1.01,5.9,M,8.0,M,,0000*5B
$GPGSA,A,3,23,15,24,18,12,05,10,32,,,,,1.31,1.01,0.83*06
$GPGSV,3,1,11,24,71,049,19,23,68,341,23,18,47,219,12,50,45,139,29*71
$GPGSV,3,2,11,15,35,062,16,10,34,319,19,12,20,140,16,32,15,274,27*7E
$GPGSV,3,3,11,05,13,126,19,25,10,169,12,13,07,065,*4E
$GPRMC,071207.000,A,3109.9938,N,12123.9983,E,17.44,166.13,290921,,,A*51
$GPVTG,166.13,T,,M,17.44,N,32.3,K,A*0A
$GPGGA,071208.000,3109.9891,N,12123.9995,E,1,08,1.01,5.9,M,8.0,M,,0000*51
$GPGSA,A,3,23,15,24,18,12,05,10,32,,,,,1.31,1.01,0.83*06
$GPGSV,3,1,11,24,71,049,20,23,68,341,24,18,47,219,12,50,45,139,28*7D
$GPGSV,3,2,11,15,35,062,14,10,34,319,20,12,20,140,16,32,15,274,26*77
$GPGSV,3,3,11,05,13,126,17,25,10,169,12,13,07,065,*40
$GPRMC,071208.000,A,3109.9891,N,12123.9995,E,17.02,166.97,290921,,,A*55
$GPVTG,166.97,T,,M,17.02,N,31.5,K,A*01
$GPGGA,071209.000,3109.9846,N,12124.0005,E,1,08,1.01,6.0,M,8.0,M,,0000*5E
$GPGSA,A,3,23,15,24,18,12,05,10,32,,,,,1.31,1.01,0.83*06
$GPGSV,3,1,11,24,71,049,22,23,68,341,23,18,47,219,12,50,45,139,27*77
$GPGSV,3,2,11,15,35,062,14,10,34,319,21,12,20,140,16,32,15,274,31*70
$GPGSV,3,3,11,05,13,126,16,25,10,169,13,13,07,065,*40
$GPRMC,071209.000,A,3109.9846,N,12124.0005,E,16.51,167.81,290921,,,A*51
$GPVTG,167.81,T,,M,16.51,N,30.6,K,A*02
$GPGGA,071210.000,3109.9798,N,12124.0015,E,1,08,1.01,6.0,M,8.0,M,,0000*5B
$GPGSA,A,3,23,15,24,18,12,05,10,32,,,,,1.31,1.01,0.83*06
$GPGSV,3,1,11,24,71,049,23,23,68,341,22,18,47,219,12,50,45,139,26*76
$GPGSV,3,2,11,15,35,062,15,10,34,319,20,12,20,140,17,32,15,274,21*70
$GPGSV,3,3,11,05,13,126,16,25,10,169,13,13,07,065,*40
$GPRMC,071210.000,A,3109.9798,N,12124.0015,E,16.48,168.54,290921,,,A*5B
$GPVTG,168.54,T,,M,16.48,N,30.5,K,A*0E
$GPGGA,071211.000,3109.9756,N,12124.0027,E,1,08,1.01,6.0,M,8.0,M,,0000*59
$GPGSA,A,3,23,15,24,18,12,05,10,32,,,,,1.31,1.01,0.83*06
$GPGSV,3,1,11,24,71,049,24,23,68,341,21,18,47,219,14,50,45,139,25*77
$GPGSV,3,2,11,15,35,062,14,10,34,319,20,12,20,140,28,32,15,274,20*7C
$GPGSV,3,3,11,05,13,126,15,25,10,169,13,13,07,065,*43
$GPRMC,071211.000,A,3109.9756,N,12124.0027,E,15.97,168.70,290921,,,A*5E
$GPVTG,168.70,T,,M,15.97,N,29.6,K,A*02
$GPGGA,071212.000,3109.9709,N,12124.0032,E,1,08,1.01,5.7,M,8.0,M,,0000*50
$GPGSA,A,3,23,15,24,18,12,05,10,32,,,,,1.31,1.01,0.83*06
$GPGSV,3,1,11,24,71,049,26,23,68,341,21,18,47,219,12,50,45,139,25*73
$GPGSV,3,2,11,15,35,062,16,10,34,319,19,12,20,140,26,32,15,274,18*71
$GPGSV,3,3,11,05,13,126,14,25,10,169,13,13,07,065,*42
$GPRMC,071212.000,A,3109.9709,N,12124.0032,E,15.57,169.24,290921,,,A*5F
$GPVTG,169.24,T,,M,15.57,N,28.8,K,A*01
$GPGGA,071213.000,3109.9669,N,12124.0042,E,1,08,1.01,5.7,M,8.0,M,,0000*51
$GPGSA,A,3,23,15,24,18,12,05,10,32,,,,,1.31,1.01,0.83*06
$GPGSV,3,1,11,24,71,049,24,23,68,341,20,18,47,219,15,50,45,139,25*77
$GPGSV,3,2,11,15,35,062,17,10,34,319,19,12,20,140,26,32,15,274,19*71
$GPGSV,3,3,11,05,13,126,15,25,10,169,13,13,07,065,*43
$GPRMC,071213.000,A,3109.9669,N,12124.0042,E,15.04,169.36,290921,,,A*5B
$GPVTG,169.36,T,,M,15.04,N,27.9,K,A*0A
$GPGGA,071214.000,3109.9628,N,12124.0055,E,1,08,1.01,5.8,M,8.0,M,,0000*5A
$GPGSA,A,3,23,15,24,18,12,05,10,32,,,,,1.31,1.01,0.83*06
$GPGSV,3,1,11,24,71,049,23,23,68,341,20,18,47,219,16,15,35,062,21*7E
$GPGSV,3,2,11,10,34,319,19,12,20,140,26,44,20,250,,32,15,274,18*75
$GPGSV,3,3,11,05,13,126,14,25,10,169,13,13,07,065,*42
$GPRMC,071214.000,A,3109.9628,N,12124.0055,E,14.58,168.93,290921,,,A*59
$GPVTG,168.93,T,,M,14.58,N,27.0,K,A*05
$GPGGA,071215.000,3109.9589,N,12124.0070,E,1,08,1.01,5.8,M,8.0,M,,0000*54
$GPGSA,A,3,23,15,24,18,12,05,10,32,,,,,1.31,1.01,0.83*06
$GPGSV,3,1,11,24,71,049,22,23,68,341,20,18,47,219,16,15,35,062,22*7C
$GPGSV,3,2,11,10,34,319,19,12,20,140,28,44,20,250,,32,15,274,18*7B
$GPGSV,3,3,11,05,13,126,16,25,10,169,13,13,07,065,*40
$GPRMC,071215.000,A,3109.9589,N,12124.0070,E,14.11,167.85,290921,,,A*52
$GPVTG,167.85,T,,M,14.11,N,26.1,K,A*00
$GPGGA,071216.000,3109.9543,N,12124.0068,E,1,08,1.01,5.8,M,8.0,M,,0000*58
$GPGSA,A,3,23,15,24,18,12,05,10,32,,,,,1.31,1.01,0.83*06
$GPGSV,3,1,11,24,71,049,21,23,68,341,20,18,47,219,24,15,35,062,21*7D
$GPGSV,3,2,11,10,34,319,18,12,20,140,27,44,20,250,,32,15,274,19*74
$GPGSV,3,3,11,05,13,126,17,25,10,169,14,13,07,065,*46
$GPRMC,071216.000,A,3109.9543,N,12124.0068,E,14.15,168.64,290921,,,A*5A
$GPVTG,168.64,T,,M,14.15,N,26.2,K,A*07
$GPGGA,071217.000,3109.9510,N,12124.0081,E,1,08,1.01,5.9,M,8.0,M,,0000*59
$GPGSA,A,3,23,15,24,18,12,05,10,32,,,,,1.31,1.01,0.83*06
$GPGSV,3,1,11,24,71,049,21,23,68,341,20,18,47,219,27,15,35,062,21*7E
$GPGSV,3,2,11,10,34,319,17,12,20,140,26,44,20,250,,32,15,274,21*71
$GPGSV,3,3,11,05,13,126,19,25,10,169,14,13,07,065,*48
$GPRMC,071217.000,A,3109.9510,N,12124.0081,E,13.15,169.01,290921,,,A*5F
$GPVTG,169.01,T,,M,13.15,N,24.4,K,A*06
$GPGGA,071218.000,3109.9480,N,12124.0097,E,1,08,1.01,5.9,M,8.0,M,,0000*59
$GPGSA,A,3,23,15,24,18,12,05,10,32,,,,,1.31,1.01,0.83*06
$GPGSV,3,1,11,24,71,049,21,23,68,341,21,18,47,219,27,15,35,062,28*76
$GPGSV,3,2,11,10,34,319,17,12,20,140,25,44,20,250,,32,15,274,22*71
$GPGSV,3,3,11,05,13,126,21,25,10,169,14,13,07,065,*43
$GPRMC,071218.000,A,3109.9480,N,12124.0097,E,12.74,164.59,290921,,,A*59
$GPVTG,164.59,T,,M,12.74,N,23.6,K,A*05
$GPGGA,071219.000,3109.9449,N,12124.0114,E,1,08,1.01,6.0,M,8.0,M,,0000*5D
$GPGSA,A,3,23,15,24,18,12,05,10,32,,,,,1.31,1.01,0.83*06
$GPGSV,3,1,11,24,71,049,21,23,68,341,22,18,47,219,28,15,35,062,25*77
$GPGSV,3,2,11,10,34,319,16,12,20,140,24,44,20,250,,32,15,274,23*70
$GPGSV,3,3,11,05,13,126,20,25,10,169,14,13,07,065,*42
$GPRMC,071219.000,A,3109.9449,N,12124.0114,E,12.75,164.97,290921,,,A*54
$GPVTG,164.97,T,,M,12.75,N,23.6,K,A*06
$GPGGA,071220.000,3109.9424,N,12124.0133,E,1,08,1.01,6.0,M,8.0,M,,0000*59
$GPGSA,A,3,23,15,24,18,12,05,10,32,,,,,1.31,1.01,0.83*06
$GPGSV,3,1,11,24,71,049,21,23,68,341,21,18,47,219,30,15,35,062,26*7E
$GPGSV,3,2,11,10,34,319,15,12,20,140,24,44,20,250,,32,15,274,23*73
$GPGSV,3,3,11,05,13,126,17,25,10,169,14,13,07,065,*46
$GPRMC,071220.000,A,3109.9424,N,12124.0133,E,11.76,162.54,290921,,,A*59
$GPVTG,162.54,T,,M,11.76,N,21.8,K,A*03
$GPGGA,071221.000,3109.9397,N,12124.0149,E,1,08,1.01,6.1,M,8.0,M,,0000*5B
$GPGSA,A,3,23,15,24,18,12,05,10,32,,,,,1.31,1.01,0.83*06
$GPGSV,3,1,11,24,71,049,20,23,68,341,21,18,47,219,30,15,35,062,22*7B
$GPGSV,3,2,11,10,34,319,15,12,20,140,25,44,20,250,,32,15,274,22*73
$GPGSV,3,3,11,05,13,126,17,25,10,169,14,13,07,065,*46
$GPRMC,071221.000,A,3109.9397,N,12124.0149,E,11.18,160.76,290921,,,A*50
$GPVTG,160.76,T,,M,11.18,N,20.7,K,A*07
$GPGGA,071222.000,3109.9372,N,12124.0162,E,1,08,1.01,6.2,M,8.0,M,,0000*59
$GPGSA,A,3,23,15,24,18,12,05,10,32,,,,,1.31,1.01,0.83*06
$GPGSV,3,1,11,24,71,049,21,23,68,341,21,18,47,219,30,15,35,062,24*7C
$GPGSV,3,2,11,10,34,319,15,12,20,140,28,44,20,250,,32,15,274,17*78
$GPGSV,3,3,11,05,13,126,18,25,10,169,14,13,07,065,*49
$GPRMC,071222.000,A,3109.9372,N,12124.0162,E,10.51,160.26,290921,,,A*58
$GPVTG,160.26,T,,M,10.51,N,19.5,K,A*06
$GPGGA,071223.000,3109.9352,N,12124.0176,E,1,08,1.01,6.2,M,8.0,M,,0000*5F
$GPGSA,A,3,23,15,24,18,12,05,10,32,,,,,1.31,1.01,0.83*06
$GPGSV,3,1,11,24,71,049,22,23,68,341,21,18,47,219,31,15,35,062,17*7E
$GPGSV,3,2,11,10,34,319,14,12,20,140,27,40,19,251,,32,15,274,15*7B
$GPGSV,3,3,11,05,13,126,18,25,10,169,14,13,07,065,*49
$GPRMC,071223.000,A,3109.9352,N,12124.0176,E,9.05,157.73,290921,,,A*63
$GPVTG,157.73,T,,M,9.05,N,16.8,K,A*39
$GPGGA,071224.000,3109.9331,N,12124.0186,E,1,08,1.01,6.3,M,8.0,M,,0000*53
$GPGSA,A,3,23,15,24,18,12,05,10,32,,,,,1.31,1.01,0.83*06
$GPGSV,3,1,11,24,71,049,23,23,68,341,21,18,47,219,30,15,35,062,16*7F
$GPGSV,3,2,11,10,34,319,14,12,20,140,25,40,19,251,,32,15,274,14*78
$GPGSV,3,3,11,05,13,126,17,25,10,169,14,13,07,065,*46
$GPRMC,071224.000,A,3109.9331,N,12124.0186,E,8.29,156.35,290921,,,A*62
$GPVTG,156.35,T,,M,8.29,N,15.4,K,A*3A
$GPGGA,071225.000,3109.9312,N,12124.0195,E,1,08,1.01,6.3,M,8.0,M,,0000*51
$GPGSA,A,3,23,15,24,18,12,05,10,32,,,,,1.31,1.01,0.83*06
$GPGSV,3,1,11,24,71,049,23,23,69,341,20,18,47,219,29,15,35,062,14*75
$GPGSV,3,2,11,10,34,319,14,12,20,140,22,40,19,251,,32,15,274,13*78
$GPGSV,3,3,11,05,13,126,17,25,10,169,15,13,07,065,*47
$GPRMC,071225.000,A,3109.9312,N,12124.0195,E,7.51,156.14,290921,,,A*63
$GPVTG,156.14,T,,M,7.51,N,13.9,K,A*32
$GPGGA,071226.000,3109.9296,N,12124.0203,E,1,08,1.01,6.4,M,8.0,M,,0000*54
$GPGSA,A,3,23,15,24,18,12,05,10,32,,,,,1.31,1.01,0.83*06
$GPGSV,3,1,11,24,71,049,23,23,69,341,20,18,47,219,28,15,35,062,13*73
$GPGSV,3,2,11,10,34,319,15,12,20,140,25,40,19,251,,32,15,274,13*7E
$GPGSV,3,3,11,05,13,126,17,25,10,169,16,13,07,065,*44
$GPRMC,071226.000,A,3109.9296,N,12124.0203,E,6.22,155.89,290921,,,A*63
$GPVTG,155.89,T,,M,6.22,N,11.5,K,A*3E
$GPGGA,071227.000,3109.9286,N,12124.0212,E,1,08,1.01,6.4,M,8.0,M,,0000*54
$GPGSA,A,3,23,15,24,18,12,05,10,32,,,,,1.31,1.01,0.83*06
$GPGSV,3,1,11,24,71,049,23,23,69,341,20,18,47,219,27,15,35,062,13*7C
$GPGSV,3,2,11,10,34,319,16,12,20,140,25,40,19,251,,32,15,274,13*7D
$GPGSV,3,3,11,05,13,126,17,25,10,169,17,13,07,065,*45
$GPRMC,071227.000,A,3109.9286,N,12124.0212,E,4.72,150.62,290921,,,A*64
$GPVTG,150.62,T,,M,4.72,N,8.7,K,A*03
$GPGGA,071228.000,3109.9283,N,12124.0224,E,1,08,1.01,6.4,M,8.0,M,,0000*5B
$GPGSA,A,3,23,15,24,18,12,05,10,32,,,,,1.31,1.01,0.83*06
$GPGSV,3,1,11,24,71,049,22,23,69,341,21,18,47,219,28,15,35,062,15*75
$GPGSV,3,2,11,10,34,319,15,12,20,140,25,40,19,251,,32,15,274,17*7A
$GPGSV,3,3,11,05,13,126,17,25,10,169,17,13,07,065,*45
$GPRMC,071228.000,A,3109.9283,N,12124.0224,E,3.18,143.81,290921,,,A*6F
$GPVTG,143.81,T,,M,3.18,N,5.9,K,A*04
$GPGGA,071229.000,3109.9278,N,12124.0231,E,1,08,1.01,6.4,M,8.0,M,,0000*5A
$GPGSA,A,3,23,15,24,18,12,05,10,32,,,,,1.31,1.01,0.83*06
$GPGSV,3,1,11,24,71,049,22,23,69,341,21,18,47,219,28,15,35,062,14*74
$GPGSV,3,2,11,10,34,319,15,12,20,140,17,40,19,251,,32,15,274,18*74
$GPGSV,3,3,11,05,13,126,18,25,10,169,17,13,07,065,*4A
$GPRMC,071229.000,A,3109.9278,N,12124.0231,E,2.80,143.81,290921,,,A*6E
$GPVTG,143.81,T,,M,2.80,N,5.2,K,A*0F
$GPGGA,071230.000,3109.9276,N,12124.0240,E,1,08,1.01,6.5,M,8.0,M,,0000*5B
$GPGSA,A,3,23,15,24,18,12,05,10,32,,,,,1.31,1.01,0.83*06
$GPGSV,3,1,11,24,71,049,22,23,69,341,22,18,47,219,30,15,35,062,12*78
$GPGSV,3,2,11,10,34,319,16,12,20,140,16,40,19,251,,32,15,274,17*79
$GPGSV,3,3,11,05,13,126,17,25,10,169,17,13,07,065,*45
$GPRMC,071230.000,A,3109.9276,N,12124.0240,E,2.42,143.81,290921,,,A*60
$GPVTG,143.81,T,,M,2.42,N,4.5,K,A*07
$GPGGA,071231.000,3109.9273,N,12124.0245,E,1,08,1.01,6.5,M,8.0,M,,0000*5A
$GPGSA,A,3,23,15,24,18,12,05,10,32,,,,,1.31,1.01,0.83*06
$GPGSV,3,1,11,24,71,049,22,23,69,341,22,18,47,219,31,15,35,062,10*7B
$GPGSV,3,2,11,10,34,319,17,12,20,140,15,40,19,251,,32,15,274,18*74
$GPGSV,3,3,11,05,13,126,15,25,10,169,17,13,07,065,*47
$GPRMC,071231.000,A,3109.9273,N,12124.0245,E,1.98,143.81,290921,,,A*65
$GPVTG,143.81,T,,M,1.98,N,3.7,K,A*06
$GPGGA,071232.000,3109.9270,N,12124.0249,E,1,08,1.01,6.6,M,8.0,M,,0000*55
$GPGSA,A,3,23,15,24,18,12,05,10,32,,,,,1.31,1.01,0.83*06
$GPGSV,3,1,11,24,71,049,21,23,69,341,23,18,47,219,32,15,35,062,14*7E
$GPGSV,3,2,11,10,34,319,18,12,20,140,17,32,15,274,18,05,13,126,12*72
$GPGSV,3,3,11,25,10,169,17,13,07,065,,34,,,*76
$GPRMC,071232.000,A,3109.9270,N,12124.0249,E,0.00,143.81,290921,,,A*69
$GPVTG,143.81,T,,M,0.00,N,0.0,K,A*02
$GPGGA,071233.000,3109.9269,N,12124.0251,E,1,08,1.01,6.6,M,8.0,M,,0000*55
$GPGSA,A,3,23,15,24,18,12,05,10,32,,,,,1.31,1.01,0.83*06
$GPGSV,3,1,11,24,71,049,20,23,69,341,25,18,47,219,32,15,35,062,14*79
$GPGSV,3,2,11,10,34,319,17,12,20,140,16,32,15,274,18,05,13,126,13*7D
$GPGSV,3,3,11,25,10,169,17,13,07,065,,34,,,*76
$GPRMC,071233.000,A,3109.9269,N,12124.0251,E,0.00,143.81,290921,,,A*69
$GPVTG,143.81,T,,M,0.00,N,0.0,K,A*02
$GPGGA,071234.000,3109.9268,N,12124.0256,E,1,08,1.01,6.7,M,8.0,M,,0000*55
$GPGSA,A,3,23,15,24,18,12,05,10,32,,,,,1.31,1.01,0.83*06
$GPGSV,3,1,11,24,71,049,19,23,69,341,25,18,47,219,31,15,35,062,14*70
$GPGSV,3,2,11,10,34,319,17,12,20,140,15,32,16,275,18,05,13,126,15*7A
$GPGSV,3,3,11,25,10,169,17,13,07,065,,34,,,*76
$GPRMC,071234.000,A,3109.9268,N,12124.0256,E,0.00,143.81,290921,,,A*68
$GPVTG,143.81,T,,M,0.00,N,0.0,K,A*02
$GPGGA,071235.000,3109.9266,N,12124.0257,E,1,08,1.01,6.8,M,8.0,M,,0000*54
$GPGSA,A,3,23,15,24,18,12,05,10,32,,,,,1.31,1.01,0.83*06
$GPGSV,3,1,11,24,71,049,19,23,69,341,24,18,47,219,30,15,35,062,13*77
$GPGSV,3,2,11,10,34,319,19,12,20,140,16,32,16,275,18,05,13,126,14*76
$GPGSV,3,3,11,25,10,169,17,13,07,065,,34,,,*76
$GPRMC,071235.000,A,3109.9266,N,12124.0257,E,0.00,143.81,290921,,,A*66
$GPVTG,143.81,T,,M,0.00,N,0.0,K,A*02
$GPGGA,071236.000,3109.9264,N,12124.0259,E,1,08,1.01,6.9,M,8.0,M,,0000*5A
$GPGSA,A,3,23,15,24,18,12,05,10,32,,,,,1.31,1.01,0.83*06
$GPGSV,3,1,11,24,71,049,26,23,69,341,23,18,47,219,31,15,35,062,12*7C
$GPGSV,3,2,11,10,34,319,21,12,20,140,22,32,16,275,19,05,13,126,16*79
$GPGSV,3,3,11,25,10,169,16,13,07,065,,34,,,*77
$GPRMC,071236.000,A,3109.9264,N,12124.0259,E,0.00,143.81,290921,,,A*69
$GPVTG,143.81,T,,M,0.00,N,0.0,K,A*02
$GPGGA,071237.000,3109.9260,N,12124.0259,E,1,08,1.01,7.0,M,8.0,M,,0000*57
$GPGSA,A,3,23,15,24,18,12,05,10,32,,,,,1.31,1.01,0.83*06
$GPGSV,3,1,11,24,71,049,24,23,69,341,22,18,47,219,31,15,35,062,15*78
$GPGSV,3,2,11,10,34,319,19,12,20,140,20,32,16,275,19,05,13,126,17*71
$GPGSV,3,3,11,25,10,169,16,13,07,065,,34,,,*77
$GPRMC,071237.000,A,3109.9260,N,12124.0259,E,0.00,143.81,290921,,,A*6C
$GPVTG,143.81,T,,M,0.00,N,0.0,K,A*02
$GPGGA,071238.000,3109.9257,N,12124.0258,E,1,08,1.01,7.1,M,8.0,M,,0000*5C
$GPGSA,A,3,23,15,24,18,12,05,10,32,,,,,1.31,1.01,0.83*06
$GPGSV,3,1,11,24,71,049,26,23,69,341,21,18,47,219,31,15,35,062,14*78
$GPGSV,3,2,11,10,34,319,17,12,20,140,20,32,16,275,20,05,13,126,16*74
$GPGSV,3,3,11,25,10,169,16,13,07,065,,34,,,*77
$GPRMC,071238.000,A,3109.9257,N,12124.0258,E,0.00,143.81,290921,,,A*66
$GPVTG,143.81,T,,M,0.00,N,0.0,K,A*02
$GPGGA,071239.000,3109.9256,N,12124.0258,E,1,08,1.01,7.2,M,8.0,M,,0000*5F
$GPGSA,A,3,23,15,24,18,12,05,10,32,,,,,1.31,1.01,0.83*06
$GPGSV,3,1,11,24,71,049,27,23,69,341,20,18,47,219,31,15,35,062,13*7F
$GPGSV,3,2,11,10,34,319,18,12,20,140,21,32,16,275,21,05,13,126,16*7B
$GPGSV,3,3,11,25,10,169,16,13,07,065,,35,,,*76
$GPRMC,071239.000,A,3109.9256,N,12124.0258,E,0.00,143.81,290921,,,A*66
$GPVTG,143.81,T,,M,0.00,N,0.0,K,A*02
$GPGGA,071240.000,3109.9256,N,12124.0258,E,1,08,1.06,7.2,M,8.0,M,,0000*56
$GPGSA,A,3,23,15,24,18,12,05,10,32,,,,,1.84,1.06,1.50*00
$GPGSV,3,1,11,24,71,049,28,23,69,341,19,18,47,219,31,15,35,062,15*7C
$GPGSV,3,2,11,10,34,319,19,12,20,140,22,32,16,275,22,05,13,126,16*7A
$GPGSV,3,3,11,25,10,169,15,13,07,065,,35,,,*75
$GPRMC,071240.000,A,3109.9256,N,12124.0258,E,0.00,143.81,290921,,,A*68
$GPVTG,143.81,T,,M,0.00,N,0.0,K,A*02
$GPGGA,071241.000,3109.9256,N,12124.0258,E,1,08,1.06,7.2,M,8.0,M,,0000*57
$GPGSA,A,3,23,15,24,18,12,05,10,32,,,,,1.84,1.06,1.50*00
$GPGSV,3,1,11,24,71,049,28,23,69,341,19,18,47,219,30,15,35,062,13*7B
$GPGSV,3,2,11,10,34,319,19,12,20,140,22,32,16,275,22,05,13,126,15*79
$GPGSV,3,3,11,25,10,169,14,13,07,065,,35,,,*74
$GPRMC,071241.000,A,3109.9256,N,12124.0258,E,0.00,143.81,290921,,,A*69
$GPVTG,143.81,T,,M,0.00,N,0.0,K,A*02
$GPGGA,071242.000,3109.9256,N,12124.0258,E,1,08,1.06,7.2,M,8.0,M,,0000*54
$GPGSA,A,3,23,15,24,18,12,05,10,32,,,,,1.84,1.06,1.50*00
$GPGSV,3,1,11,24,71,049,27,23,69,341,20,18,47,219,30,15,35,062,15*78
$GPGSV,3,2,11,10,34,319,19,12,20,140,23,32,16,275,23,05,13,127,14*79
$GPGSV,3,3,11,25,10,169,13,13,07,065,,35,,,*73
$GPRMC,071242.000,A,3109.9256,N,12124.0258,E,0.00,143.81,290921,,,A*6A
$GPVTG,143.81,T,,M,0.00,N,0.0,K,A*02
$GPGGA,071243.000,3109.9256,N,12124.0258,E,1,08,1.06,7.2,M,8.0,M,,0000*55
$GPGSA,A,3,23,15,24,18,12,05,10,32,,,,,1.84,1.06,1.50*00
$GPGSV,3,1,11,24,71,049,27,23,69,341,22,18,47,219,30,15,35,062,14*7B
$GPGSV,3,2,11,10,34,319,18,12,20,140,23,32,16,275,23,05,13,127,14*78
$GPGSV,3,3,11,25,10,169,13,13,07,065,,35,,,*73
$GPRMC,071243.000,A,3109.9256,N,12124.0258,E,0.00,143.81,290921,,,A*6B
$GPVTG,143.81,T,,M,0.00,N,0.0,K,A*02
$GPGGA,071244.000,3109.9256,N,12124.0258,E,1,08,1.06,7.2,M,8.0,M,,0000*52
$GPGSA,A,3,23,15,24,18,12,05,10,32,,,,,1.84,1.06,1.50*00
$GPGSV,3,1,11,24,71,049,27,23,69,341,32,18,47,219,30,15,35,062,12*7C
$GPGSV,3,2,11,10,34,319,17,12,20,140,24,32,16,275,22,05,13,127,15*70
$GPGSV,3,3,11,25,10,169,14,13,07,065,,35,,,*74
$GPRMC,071244.000,A,3109.9256,N,12124.0258,E,0.00,143.81,290921,,,A*6C
$GPVTG,143.81,T,,M,0.00,N,0.0,K,A*02
$GPGGA,071245.000,3109.9256,N,12124.0258,E,1,08,1.06,7.2,M,8.0,M,,0000*53
$GPGSA,A,3,23,15,24,18,12,05,10,32,,,,,1.84,1.06,1.50*00
$GPGSV,3,1,11,24,71,049,27,23,69,341,31,18,47,219,31,15,35,062,12*7E
$GPGSV,3,2,11,10,34,319,16,12,20,140,24,32,16,275,22,05,13,127,15*71
$GPGSV,3,3,11,25,10,169,15,13,07,065,,36,,,*76
$GPRMC,071245.000,A,3109.9256,N,12124.0258,E,0.00,143.81,290921,,,A*6D
$GPVTG,143.81,T,,M,0.00,N,0.0,K,A*02
$GPGGA,071246.000,3109.9256,N,12124.0258,E,1,08,1.06,7.2,M,8.0,M,,0000*50
$GPGSA,A,3,23,15,24,18,12,05,10,32,,,,,1.84,1.06,1.50*00
$GPGSV,3,1,11,24,71,049,27,23,69,341,30,18,47,219,31,15,35,062,14*79
$GPGSV,3,2,11,10,34,319,16,12,20,140,23,32,16,275,22,05,13,127,16*75
$GPGSV,3,3,11,25,10,169,16,13,07,065,,36,,,*75
$GPRMC,071246.000,A,3109.9256,N,12124.0258,E,0.00,143.81,290921,,,A*6E
$GPVTG,143.81,T,,M,0.00,N,0.0,K,A*02
$GPGGA,071247.000,3109.9256,N,12124.0258,E,1,08,1.06,7.2,M,8.0,M,,0000*51
$GPGSA,A,3,23,15,24,18,12,05,10,32,,,,,1.84,1.06,1.50*00
$GPGSV,3,1,11,24,71,049,27,23,69,341,29,18,47,219,32,15,35,062,14*72
$GPGSV,3,2,11,10,34,319,15,12,20,140,25,32,16,275,22,05,13,127,17*71
$GPGSV,3,3,11,25,10,169,17,13,07,065,,36,,,*74
$GPRMC,071247.000,A,3109.9256,N,12124.0258,E,0.00,143.81,290921,,,A*6F
$GPVTG,143.81,T,,M,0.00,N,0.0,K,A*02
$GPGGA,071248.000,3109.9256,N,12124.0258,E,1,08,1.06,7.2,M,8.0,M,,0000*5E
$GPGSA,A,3,23,15,24,18,12,05,10,32,,,,,1.84,1.06,1.50*00
$GPGSV,3,1,11,24,71,049,28,23,69,341,28,18,47,219,32,15,35,062,14*7C
$GPGSV,3,2,11,10,34,319,11,12,20,140,23,32,16,275,22,05,13,127,17*73
$GPGSV,3,3,11,25,10,169,17,13,07,065,,36,,,*74
$GPRMC,071248.000,A,3109.9256,N,12124.0258,E,0.00,143.81,290921,,,A*60
$GPVTG,143.81,T,,M,0.00,N,0.0,K,A*02
$GPGGA,071249.000,3109.9256,N,12124.0258,E,1,08,1.06,7.2,M,8.0,M,,0000*5F
$GPGSA,A,3,23,15,24,18,12,05,10,32,,,,,1.84,1.06,1.50*00
$GPGSV,3,1,11,24,71,049,27,23,69,341,27,18,47,219,32,15,35,062,13*7B
$GPGSV,3,2,11,10,34,319,13,12,20,140,22,32,16,275,22,05,13,127,17*70
$GPGSV,3,3,11,25,10,169,17,13,07,065,,36,,,*74
$GPRMC,071249.000,A,3109.9256,N,12124.0258,E,0.00,143.81,290921,,,A*61
$GPVTG,143.81,T,,M,0.00,N,0.0,K,A*02
$GPGGA,071250.000,3109.9256,N,12124.0258,E,1,08,1.06,7.2,M,8.0,M,,0000*57
$GPGSA,A,3,23,15,24,18,12,05,10,32,,,,,1.84,1.06,1.50*00
$GPGSV,3,1,11,24,71,049,25,23,69,341,26,18,47,219,31,15,35,062,13*7B
$GPGSV,3,2,11,10,34,319,11,12,20,140,25,32,16,275,22,05,13,127,17*75
$GPGSV,3,3,11,25,10,169,17,13,06,065,,36,,,*75
$GPRMC,071250.000,A,3109.9256,N,12124.0258,E,0.00,143.81,290921,,,A*69
$GPVTG,143.81,T,,M,0.00,N,0.0,K,A*02
$GPGGA,071251.000,3109.9256,N,12124.0258,E,1,08,1.06,7.2,M,8.0,M,,0000*56
$GPGSA,A,3,23,15,24,18,12,05,10,32,,,,,1.84,1.06,1.51*01
$GPGSV,3,1,11,24,71,049,16,23,69,341,17,18,47,219,30,15,35,062,14*7F
$GPGSV,3,2,11,10,34,319,13,12,20,140,22,32,16,275,22,05,13,127,17*70
$GPGSV,3,3,11,25,10,169,17,13,06,065,,36,,,*75
$GPRMC,071251.000,A,3109.9256,N,12124.0258,E,0.00,143.81,290921,,,A*68
$GPVTG,143.81,T,,M,0.00,N,0.0,K,A*02
$GPGGA,071252.000,3109.9256,N,12124.0259,E,1,08,1.01,7.2,M,8.0,M,,0000*53
$GPGSA,A,3,23,15,24,18,12,05,10,32,,,,,1.31,1.01,0.83*06
$GPGSV,3,1,11,24,71,049,17,23,69,341,27,18,47,219,31,15,35,062,17*7F
$GPGSV,3,2,11,10,34,319,13,12,20,140,21,32,16,275,22,05,13,127,17*73
$GPGSV,3,3,11,25,10,169,17,13,06,065,,38,,,*7B
$GPRMC,071252.000,A,3109.9256,N,12124.0259,E,0.00,143.81,290921,,,A*6A
$GPVTG,143.81,T,,M,0.00,N,0.0,K,A*02
$GPGGA,071253.000,3109.9256,N,12124.0258,E,1,08,1.01,7.2,M,8.0,M,,0000*53
$GPGSA,A,3,23,15,24,18,12,05,10,32,,,,,1.31,1.01,0.83*06
$GPGSV,3,1,11,24,71,049,17,23,69,341,28,18,47,219,32,15,35,062,18*7C
$GPGSV,3,2,11,10,34,319,14,12,20,140,23,32,16,275,21,05,13,127,17*75
$GPGSV,3,3,11,25,10,169,17,13,06,065,,38,,,*7B
$GPRMC,071253.000,A,3109.9256,N,12124.0258,E,0.00,143.81,290921,,,A*6A
$GPVTG,143.81,T,,M,0.00,N,0.0,K,A*02
$GPGGA,071254.000,3109.9256,N,12124.0257,E,1,08,1.01,7.2,M,8.0,M,,0000*5B
$GPGSA,A,3,23,15,24,18,12,05,10,32,,,,,1.31,1.01,0.83*06
$GPGSV,3,1,11,24,71,049,18,23,69,341,29,18,47,219,32,15,35,062,19*73
$GPGSV,3,2,11,10,34,319,15,12,20,140,24,32,16,275,21,05,13,127,17*73
$GPGSV,3,3,11,25,10,169,17,13,06,065,,38,,,*7B
$GPRMC,071254.000,A,3109.9256,N,12124.0257,E,0.00,143.81,290921,,,A*62
$GPVTG,143.81,T,,M,0.00,N,0.0,K,A*02
$GPGGA,071255.000,3109.9255,N,12124.0256,E,1,08,1.01,7.2,M,8.0,M,,0000*58
$GPGSA,A,3,23,15,24,18,12,05,10,32,,,,,1.31,1.01,0.83*06
$GPGSV,3,1,11,24,71,049,18,23,69,341,29,18,46,219,31,15,35,062,18*70
$GPGSV,3,2,11,10,34,319,15,12,20,140,28,32,16,275,21,05,13,127,16*7E
$GPGSV,3,3,11,25,10,169,17,13,06,065,,38,,,*7B
$GPRMC,071255.000,A,3109.9255,N,12124.0256,E,0.00,143.81,290921,,,A*61
$GPVTG,143.81,T,,M,0.00,N,0.0,K,A*02
$GPGGA,071256.000,3109.9254,N,12124.0256,E,1,08,1.01,7.2,M,8.0,M,,0000*5A
$GPGSA,A,3,23,15,24,18,12,05,10,32,,,,,1.31,1.01,0.83*06
$GPGSV,3,1,11,24,71,049,27,23,69,341,27,18,46,219,31,15,35,062,18*72
$GPGSV,3,2,11,10,34,319,16,12,20,140,26,32,16,275,21,05,13,127,16*73
$GPGSV,3,3,11,25,10,169,17,13,06,065,,38,,,*7B
$GPRMC,071256.000,A,3109.9254,N,12124.0256,E,0.00,143.81,290921,,,A*63
$GPVTG,143.81,T,,M,0.00,N,0.0,K,A*02
$GPGGA,071257.000,3109.9254,N,12124.0256,E,1,08,1.06,7.2,M,8.0,M,,0000*5C
$GPGSA,A,3,23,15,24,18,12,05,10,32,,,,,1.84,1.06,1.51*01
$GPGSV,3,1,11,24,71,049,26,23,69,341,26,18,46,219,30,15,35,062,17*7C
$GPGSV,3,2,11,10,34,319,16,12,20,140,23,32,16,275,20,05,13,127,16*77
$GPGSV,3,3,11,25,10,169,18,13,06,065,,38,,,*74
$GPRMC,071257.000,A,3109.9254,N,12124.0256,E,0.00,143.81,290921,,,A*62
$GPVTG,143.81,T,,M,0.00,N,0.0,K,A*02
$GPGGA,071258.000,3109.9254,N,12124.0256,E,1,08,1.06,7.2,M,8.0,M,,0000*53
$GPGSA,A,3,23,15,24,18,12,05,10,32,,,,,1.84,1.06,1.51*01
$GPGSV,3,1,11,24,71,049,25,23,69,341,26,18,46,219,30,15,35,062,12*7A
$GPGSV,3,2,11,10,34,319,16,12,20,140,22,32,16,275,20,05,13,127,16*76
$GPGSV,3,3,11,25,10,169,18,13,06,065,,41,,,*7A
$GPRMC,071258.000,A,3109.9254,N,12124.0256,E,0.00,143.81,290921,,,A*6D
$GPVTG,143.81,T,,M,0.00,N,0.0,K,A*02
$GPGGA,071259.000,3109.9254,N,12124.0256,E,1,08,1.06,7.2,M,8.0,M,,0000*52
$GPGSA,A,3,23,15,24,18,12,05,10,32,,,,,1.84,1.06,1.51*01
$GPGSV,3,1,11,24,71,049,25,23,69,341,26,18,46,219,29,15,35,062,12*72
$GPGSV,3,2,11,10,34,319,15,12,20,140,22,32,16,275,20,05,13,127,16*75
$GPGSV,3,3,11,25,10,169,19,13,06,065,,41,,,*7B
$GPRMC,071259.000,A,3109.9254,N,12124.0256,E,0.00,143.81,290921,,,A*6C
$GPVTG,143.81,T,,M,0.00,N,0.0,K,A*02
$GPGGA,071300.000,3109.9254,N,12124.0256,E,1,08,1.06,7.2,M,8.0,M,,0000*5F
$GPGSA,A,3,23,15,24,18,12,05,10,32,,,,,1.84,1.06,1.51*01
$GPGSV,3,1,11,24,71,049,26,23,69,341,27,18,46,219,30,15,35,062,15*7F
$GPGSV,3,2,11,10,34,319,16,12,20,140,20,32,16,275,19,05,13,127,16*7E
$GPGSV,3,3,11,25,10,169,20,13,06,065,,41,,,*71
$GPRMC,071300.000,A,3109.9254,N,12124.0256,E,0.00,143.81,290921,,,A*61
$GPVTG,143.81,T,,M,0.00,N,0.0,K,A*02
$GPGGA,071301.000,3109.9254,N,12124.0255,E,1,08,1.01,7.3,M,8.0,M,,0000*5B
$GPGSA,A,3,23,15,24,18,12,05,10,32,,,,,1.31,1.01,0.83*06
$GPGSV,3,1,11,24,70,049,26,23,69,341,27,18,46,219,30,15,35,062,14*7F
$GPGSV,3,2,11,10,34,319,16,12,20,140,18,32,16,275,18,05,13,127,16*74
$GPGSV,3,3,11,25,10,169,20,13,06,065,,41,,,*71
$GPRMC,071301.000,A,3109.9254,N,12124.0255,E,0.00,143.81,290921,,,A*63
$GPVTG,143.81,T,,M,0.00,N,0.0,K,A*02
$GPGGA,071302.000,3109.9253,N,12124.0251,E,1,08,1.01,7.3,M,8.0,M,,0000*5B
$GPGSA,A,3,23,15,24,18,12,05,10,32,,,,,1.31,1.01,0.83*06
$GPGSV,3,1,11,24,70,049,25,23,69,341,27,18,46,219,30,15,35,062,15*7D
$GPGSV,3,2,11,10,34,319,16,12,20,140,19,32,16,275,18,05,13,127,16*75
$GPGSV,3,3,11,25,11,169,20,13,06,065,,41,,,*70
$GPRMC,071302.000,A,3109.9253,N,12124.0251,E,0.00,143.81,290921,,,A*63
$GPVTG,143.81,T,,M,0.00,N,0.0,K,A*02
$GPGGA,071303.000,3109.9253,N,12124.0248,E,1,08,1.01,7.3,M,8.0,M,,0000*52
$GPGSA,A,3,23,15,24,18,12,05,10,32,,,,,1.31,1.01,0.83*06
$GPGSV,3,1,11,24,70,049,21,23,69,341,27,18,46,219,30,15,35,062,16*7A
$GPGSV,3,2,11,10,34,319,16,12,20,140,20,32,16,275,17,05,13,127,16*70
$GPGSV,3,3,11,25,11,169,20,13,06,065,,41,,,*70
$GPRMC,071303.000,A,3109.9253,N,12124.0248,E,0.00,143.81,290921,,,A*6A
$GPVTG,143.81,T,,M,0.00,N,0.0,K,A*02
$GPGGA,071304.000,3109.9253,N,12124.0244,E,1,08,1.01,7.4,M,8.0,M,,0000*5E
$GPGSA,A,3,23,15,24,18,12,05,10,32,,,,,1.31,1.01,0.83*06
$GPGSV,3,1,11,24,70,049,19,23,69,341,29,18,46,219,29,15,35,062,17*76
$GPGSV,3,2,11,10,34,319,17,12,20,140,19,32,16,275,17,05,13,127,16*7B
$GPGSV,3,3,11,25,11,169,19,13,06,065,,45,,,*7E
$GPRMC,071304.000,A,3109.9253,N,12124.0244,E,0.00,143.81,290921,,,A*61
$GPVTG,143.81,T,,M,0.00,N,0.0,K,A*02
$GPGGA,071305.000,3109.9254,N,12124.0241,E,1,08,1.01,7.4,M,8.0,M,,0000*5D
$GPGSA,A,3,23,15,24,18,12,05,10,32,,,,,1.31,1.01,0.83*06
$GPGSV,3,1,11,24,70,049,25,23,69,341,30,18,46,219,29,15,35,062,16*70
$GPGSV,3,2,11,10,34,319,17,12,20,140,20,32,16,275,18,05,13,127,16*7E
$GPGSV,3,3,11,25,11,169,18,13,06,065,,45,,,*7F
$GPRMC,071305.000,A,3109.9254,N,12124.0241,E,0.00,143.81,290921,,,A*62
$GPVTG,143.81,T,,M,0.00,N,0.0,K,A*02
$GPGGA,071306.000,3109.9255,N,12124.0240,E,1,08,1.01,7.5,M,8.0,M,,0000*5F
$GPGSA,A,3,23,15,24,18,12,05,10,32,,,,,1.31,1.01,0.83*06
$GPGSV,3,1,11,24,70,049,23,23,69,341,29,18,46,219,28,15,35,062,16*7F
$GPGSV,3,2,11,10,34,319,17,12,20,140,18,32,16,275,19,05,13,127,15*77
$GPGSV,3,3,11,25,11,169,18,13,06,065,,45,,,*7F
$GPRMC,071306.000,A,3109.9255,N,12124.0240,E,0.00,143.81,290921,,,A*61
$GPVTG,143.81,T,,M,0.00,N,0.0,K,A*02
$GPGGA,071307.000,3109.9256,N,12124.0238,E,1,08,1.01,7.5,M,8.0,M,,0000*52
$GPGSA,A,3,23,15,24,18,12,05,10,32,,,,,1.31,1.01,0.83*06
$GPGSV,3,1,11,24,70,049,22,23,69,341,29,18,46,219,28,15,35,062,16*7E
$GPGSV,3,2,11,10,34,319,17,12,20,140,18,32,16,275,19,05,13,127,14*76
$GPGSV,3,3,11,25,11,169,18,13,06,065,,45,,,*7F
$GPRMC,071307.000,A,3109.9256,N,12124.0238,E,0.00,143.81,290921,,,A*6C
$GPVTG,143.81,T,,M,0.00,N,0.0,K,A*02
$GPGGA,071308.000,3109.9256,N,12124.0236,E,1,08,1.01,7.6,M,8.0,M,,0000*50
$GPGSA,A,3,23,15,24,18,12,05,10,32,,,,,1.31,1.01,0.83*06
$GPGSV,3,1,11,24,70,049,22,23,69,341,29,18,46,219,29,15,35,062,16*7F
$GPGSV,3,2,11,10,34,319,17,12,20,140,19,32,16,275,19,05,13,127,14*77
$GPGSV,3,3,11,25,11,169,18,13,06,065,,45,,,*7F
$GPRMC,071308.000,A,3109.9256,N,12124.0236,E,0.00,143.81,290921,,,A*6D
$GPVTG,143.81,T,,M,0.00,N,0.0,K,A*02
$GPGGA,071309.000,3109.9256,N,12124.0234,E,1,08,1.01,7.6,M,8.0,M,,0000*53
$GPGSA,A,3,23,15,24,18,12,05,10,32,,,,,1.31,1.01,0.83*06
$GPGSV,3,1,11,24,70,049,21,23,69,341,30,18,46,219,30,15,35,062,16*7C
$GPGSV,3,2,11,10,34,319,17,12,20,140,18,32,16,275,18,05,13,127,14*77
$GPGSV,3,3,11,25,11,169,18,13,06,065,,45,,,*7F
$GPRMC,071309.000,A,3109.9256,N,12124.0234,E,0.00,143.81,290921,,,A*6E
$GPVTG,143.81,T,,M,0.00,N,0.0,K,A*02
$GPGGA,071310.000,3109.9256,N,12124.0231,E,1,08,1.01,7.7,M,8.0,M,,0000*5F
$GPGSA,A,3,23,15,24,18,12,05,10,32,,,,,1.31,1.01,0.83*06
$GPGSV,3,1,11,24,70,049,20,23,69,341,31,18,46,219,30,15,35,062,16*7C
$GPGSV,3,2,11,10,34,319,17,12,20,140,17,32,16,275,17,05,13,127,14*77
$GPGSV,3,3,11,25,11,169,18,13,06,065,,45,,,*7F
$GPRMC,071310.000,A,3109.9256,N,12124.0231,E,0.00,143.81,290921,,,A*63
$GPVTG,143.81,T,,M,0.00,N,0.0,K,A*02
$GPGGA,071311.000,3109.9256,N,12124.0229,E,1,08,1.01,7.7,M,8.0,M,,0000*57
$GPGSA,A,3,23,15,24,18,12,05,10,32,,,,,1.31,1.01,0.83*06
$GPGSV,3,1,11,24,70,049,20,23,69,341,31,18,46,219,31,15,35,062,16*7D
$GPGSV,3,2,11,10,34,319,16,12,20,140,18,32,16,275,16,05,13,127,15*79
$GPGSV,3,3,11,25,11,169,18,13,06,065,,46,,,*7C
$GPRMC,071311.000,A,3109.9256,N,12124.0229,E,0.00,143.81,290921,,,A*6B
$GPVTG,143.81,T,,M,0.00,N,0.0,K,A*02
$GPGGA,071312.000,3109.9254,N,12124.0229,E,1,08,1.01,7.8,M,8.0,M,,0000*59
$GPGSA,A,3,23,15,24,18,12,05,10,32,,,,,1.31,1.01,0.83*06
$GPGSV,3,1,11,24,70,049,20,23,69,341,31,18,46,219,31,15,35,062,17*7C
$GPGSV,3,2,11,10,34,319,12,12,20,140,16,32,16,275,16,05,13,127,15*73
$GPGSV,3,3,11,25,11,169,18,13,06,065,,46,,,*7C
$GPRMC,071312.000,A,3109.9254,N,12124.0229,E,0.00,143.81,290921,,,A*6A
$GPVTG,143.81,T,,M,0.00,N,0.0,K,A*02
$GPGGA,071313.000,3109.9252,N,12124.0230,E,1,08,1.01,7.8,M,8.0,M,,0000*56
$GPGSA,A,3,23,15,24,18,12,05,10,32,,,,,1.31,1.01,0.83*06
$GPGSV,3,1,11,24,70,049,20,23,69,341,32,18,46,219,30,15,35,062,17*7E
$GPGSV,3,2,11,10,34,319,13,12,20,140,12,32,16,275,16,05,13,127,15*76
$GPGSV,3,3,11,25,11,169,18,13,06,065,,46,,,*7C
$GPRMC,071313.000,A,3109.9252,N,12124.0230,E,0.00,143.81,290921,,,A*65
$GPVTG,143.81,T,,M,0.00,N,0.0,K,A*02
$GPGGA,071314.000,3109.9250,N,12124.0232,E,1,08,1.01,7.9,M,8.0,M,,0000*50
$GPGSA,A,3,23,15,24,18,12,05,10,32,,,,,1.31,1.01,0.83*06
$GPGSV,3,1,11,24,70,049,20,23,69,341,32,18,46,219,30,15,35,062,17*7E
$GPGSV,3,2,11,10,34,319,13,12,20,140,11,32,16,275,16,05,13,127,15*75
$GPGSV,3,3,11,25,11,169,18,13,06,065,,46,,,*7C
$GPRMC,071314.000,A,3109.9250,N,12124.0232,E,0.00,143.81,290921,,,A*62
$GPVTG,143.81,T,,M,0.00,N,0.0,K,A*02
$GPGGA,071315.000,3109.9249,N,12124.0233,E,1,08,1.01,7.9,M,8.0,M,,0000*58
$GPGSA,A,3,23,15,24,18,12,05,10,32,,,,,1.31,1.01,0.83*06
$GPGSV,3,1,11,24,70,049,18,23,69,341,32,18,46,219,30,15,35,062,17*75
$GPGSV,3,2,11,10,34,319,15,12,20,140,14,32,16,275,15,05,13,127,15*75
$GPGSV,3,3,11,25,11,169,18,13,06,065,,46,,,*7C
$GPRMC,071315.000,A,3109.9249,N,12124.0233,E,0.00,143.81,290921,,,A*6A
$GPVTG,143.81,T,,M,0.00,N,0.0,K,A*02
$GPGGA,071316.000,3109.9250,N,12124.0233,E,1,08,1.01,8.0,M,8.0,M,,0000*55
$GPGSA,A,3,23,15,24,18,12,05,10,32,,,,,1.31,1.01,0.83*06
$GPGSV,3,1,11,24,70,049,18,23,69,341,32,18,46,219,29,15,35,062,17*7D
$GPGSV,3,2,11,10,34,319,15,12,20,140,16,32,16,275,14,05,13,127,15*76
$GPGSV,3,3,11,25,11,169,17,13,06,065,,46,,,*73
$GPRMC,071316.000,A,3109.9250,N,12124.0233,E,0.00,143.81,290921,,,A*61
$GPVTG,143.81,T,,M,0.00,N,0.0,K,A*02
$GPGGA,071317.000,3109.9250,N,12124.0231,E,1,08,1.01,8.0,M,8.0,M,,0000*56
$GPGSA,A,3,23,15,24,18,12,05,10,32,,,,,1.31,1.01,0.83*06
$GPGSV,3,1,11,24,70,049,17,23,69,341,32,18,46,219,29,15,35,062,17*72
$GPGSV,3,2,11,10,34,319,16,12,20,140,18,32,16,275,15,05,13,127,16*79
$GPGSV,3,3,11,25,11,169,17,13,06,065,,47,,,*72
$GPRMC,071317.000,A,3109.9250,N,12124.0231,E,0.00,143.81,290921,,,A*62
$GPVTG,143.81,T,,M,0.00,N,0.0,K,A*02
$GPGGA,071318.000,3109.9250,N,12124.0231,E,1,07,1.10,8.0,M,8.0,M,,0000*56
$GPGSA,A,3,23,15,24,18,05,10,32,,,,,,1.38,1.10,0.83*0C
$GPGSV,3,1,11,24,70,049,16,23,69,341,32,18,46,219,29,15,35,062,17*73
$GPGSV,3,2,11,10,34,319,17,12,20,140,,32,16,275,16,05,13,127,16*72
$GPGSV,3,3,11,25,11,169,17,13,06,065,,47,,,*72
$GPRMC,071318.000,A,3109.9250,N,12124.0231,E,0.00,143.81,290921,,,A*6D
$GPVTG,143.81,T,,M,0.00,N,0.0,K,A*02
$GPGGA,071319.000,3109.9250,N,12124.0230,E,1,08,1.01,8.1,M,8.0,M,,0000*58
$GPGSA,A,3,23,15,24,18,12,05,10,32,,,,,1.31,1.01,0.83*06
$GPGSV,3,1,11,24,70,049,15,23,69,341,32,18,46,219,29,15,35,062,17*70
$GPGSV,3,2,11,10,34,319,17,12,20,140,25,32,16,275,17,05,13,127,16*74
$GPGSV,3,3,11,25,11,169,17,13,06,065,,47,,,*72
$GPRMC,071319.000,A,3109.9250,N,12124.0230,E,0.00,143.81,290921,,,A*6D
$GPVTG,143.81,T,,M,0.00,N,0.0,K,A*02
$GPGGA,071320.000,3109.9250,N,12124.0229,E,1,08,1.01,8.1,M,8.0,M,,0000*5A
$GPGSA,A,3,23,15,24,18,12,05,10,32,,,,,1.31,1.01,0.83*06
$GPGSV,3,1,11,24,70,049,23,23,69,341,32,18,46,219,29,15,35,062,17*75
$GPGSV,3,2,11,10,34,319,18,12,20,140,25,32,16,275,16,05,13,127,16*7A
$GPGSV,3,3,11,25,11,169,17,13,06,065,,47,,,*72
$GPRMC,071320.000,A,3109.9250,N,12124.0229,E,0.00,143.81,290921,,,A*6F
$GPVTG,143.81,T,,M,0.00,N,0.0,K,A*02
$GPGGA,071321.000,3109.9250,N,12124.0229,E,1,08,1.06,8.1,M,8.0,M,,0000*5C
$GPGSA,A,3,23,15,24,18,12,05,10,32,,,,,1.85,1.06,1.51*00
$GPGSV,3,1,11,24,70,049,25,23,69,341,32,18,46,219,29,15,35,062,17*73
$GPGSV,3,2,11,10,34,319,17,12,20,140,26,32,16,275,16,05,13,127,15*75
$GPGSV,3,3,11,25,11,169,16,13,06,065,,47,,,*73
$GPRMC,071321.000,A,3109.9250,N,12124.0229,E,0.00,143.81,290921,,,A*6E
$GPVTG,143.81,T,,M,0.00,N,0.0,K,A*02
$GPGGA,071322.000,3109.9250,N,12124.0229,E,1,08,1.06,8.1,M,8.0,M,,0000*5F
$GPGSA,A,3,23,15,24,18,12,05,10,32,,,,,1.84,1.06,1.51*01
$GPGSV,3,1,11,24,70,049,25,23,69,341,31,18,46,219,28,15,35,062,17*71
$GPGSV,3,2,11,10,34,320,17,12,20,140,24,32,16,275,16,05,13,127,15*7D
$GPGSV,3,3,11,25,11,169,15,13,06,065,,47,,,*70
$GPRMC,071322.000,A,3109.9250,N,12124.0229,E,0.00,143.81,290921,,,A*6D
$GPVTG,143.81,T,,M,0.00,N,0.0,K,A*02
$GPGGA,071323.000,3109.9250,N,12124.0229,E,1,08,1.06,8.1,M,8.0,M,,0000*5E
$GPGSA,A,3,23,15,24,18,12,05,10,32,,,,,1.84,1.06,1.51*01
$GPGSV,3,1,11,24,70,049,24,23,69,341,30,18,46,219,28,15,35,062,16*70
$GPGSV,3,2,11,10,34,320,17,12,20,140,26,32,16,275,16,05,13,127,15*7F
$GPGSV,3,3,11,25,11,169,14,13,06,065,,47,,,*71
$GPRMC,071323.000,A,3109.9250,N,12124.0229,E,0.00,143.81,290921,,,A*6C
$GPVTG,143.81,T,,M,0.00,N,0.0,K,A*02
$GPGGA,071324.000,3109.9250,N,12124.0229,E,1,08,1.06,8.1,M,8.0,M,,0000*59
$GPGSA,A,3,23,15,24,18,12,05,10,32,,,,,1.84,1.06,1.51*01
$GPGSV,3,1,11,24,70,049,25,23,69,341,29,18,46,219,28,15,35,062,15*7A
$GPGSV,3,2,11,10,34,320,17,12,21,140,25,32,16,275,15,05,13,127,14*7F
$GPGSV,3,3,11,25,11,169,14,13,06,065,,49,,,*7F
$GPRMC,071324.000,A,3109.9250,N,12124.0229,E,0.00,143.81,290921,,,A*6B
$GPVTG,143.81,T,,M,0.00,N,0.0,K,A*02
$GPGGA,071325.000,3109.9250,N,12124.0229,E,1,08,1.06,8.1,M,8.0,M,,0000*58
$GPGSA,A,3,23,15,24,18,12,05,10,32,,,,,1.85,1.06,1.51*00
$GPGSV,3,1,11,24,70,049,28,23,69,341,29,18,46,219,28,15,35,062,14*76
$GPGSV,3,2,11,10,34,320,17,12,21,140,28,32,16,275,12,05,13,127,15*74
$GPGSV,3,3,11,25,11,169,14,13,06,066,,49,,,*7C
$GPRMC,071325.000,A,3109.9250,N,12124.0229,E,0.00,143.81,290921,,,A*6A
$GPVTG,143.81,T,,M,0.00,N,0.0,K,A*02
$GPGGA,071326.000,3109.9250,N,12124.0229,E,1,08,1.06,8.1,M,8.0,M,,0000*5B
$GPGSA,A,3,23,15,24,18,12,05,10,32,,,,,1.84,1.06,1.51*01
$GPGSV,3,1,11,24,70,049,27,23,69,341,28,18,46,219,28,15,35,062,13*7F
$GPGSV,3,2,11,10,34,320,17,12,21,140,28,32,16,275,13,05,13,127,16*76
$GPGSV,3,3,11,25,11,169,,13,06,066,,49,,,*79
$GPRMC,071326.000,A,3109.9250,N,12124.0229,E,0.00,143.81,290921,,,A*69
$GPVTG,143.81,T,,M,0.00,N,0.0,K,A*02
$GPGGA,071327.000,3109.9250,N,12124.0228,E,1,08,1.06,8.1,M,8.0,M,,0000*5B
$GPGSA,A,3,23,15,24,18,12,05,10,32,,,,,1.84,1.06,1.51*01
$GPGSV,3,1,11,24,70,049,20,23,69,341,28,18,46,219,29,10,34,320,16*7D
$GPGSV,3,2,11,15,34,062,12,12,21,140,27,32,16,275,13,05,13,127,17*7D
$GPGSV,3,3,11,25,11,169,,13,06,066,,49,,,*79
$GPRMC,071327.000,A,3109.9250,N,12124.0228,E,0.00,143.81,290921,,,A*69
$GPVTG,143.81,T,,M,0.00,N,0.0,K,A*02
$GPGGA,071328.000,3109.9249,N,12124.0228,E,1,08,1.01,8.1,M,8.0,M,,0000*5B
$GPGSA,A,3,23,15,24,18,12,05,10,32,,,,,1.31,1.01,0.83*06
$GPGSV,3,1,11,24,70,049,20,23,69,341,28,18,46,219,29,10,34,320,16*7D
$GPGSV,3,2,11,15,34,062,12,12,21,140,26,32,16,275,14,05,13,127,17*7B
$GPGSV,3,3,11,25,11,169,,13,06,066,,49,,,*79
$GPRMC,071328.000,A,3109.9249,N,12124.0228,E,0.00,143.81,290921,,,A*6E
$GPVTG,143.81,T,,M,0.00,N,0.0,K,A*02
$GPGGA,071329.000,3109.9247,N,12124.0227,E,1,08,1.01,8.1,M,8.0,M,,0000*5B
$GPGSA,A,3,23,15,24,18,12,05,10,32,,,,,1.31,1.01,0.83*06
$GPGSV,3,1,11,24,70,049,20,23,69,341,28,18,46,219,28,10,34,320,16*7C
$GPGSV,3,2,11,15,34,062,11,12,21,140,25,32,16,275,16,05,13,127,17*79
$GPGSV,3,3,11,25,11,169,,13,06,066,,49,,,*79
$GPRMC,071329.000,A,3109.9247,N,12124.0227,E,0.00,143.81,290921,,,A*6E
$GPVTG,143.81,T,,M,0.00,N,0.0,K,A*02
$GPGGA,071330.000,3109.9246,N,12124.0225,E,1,08,1.01,8.2,M,8.0,M,,0000*53
$GPGSA,A,3,23,15,24,18,12,05,10,32,,,,,1.31,1.01,0.83*06
$GPGSV,3,1,11,24,70,049,18,23,69,341,28,18,46,218,28,10,34,320,17*77
$GPGSV,3,2,11,15,34,062,13,12,21,140,23,32,16,275,16,05,13,127,17*7D
$GPGSV,3,3,11,25,11,169,,13,06,066,,49,,,*79
$GPRMC,071330.000,A,3109.9246,N,12124.0225,E,0.00,143.81,290921,,,A*65
$GPVTG,143.81,T,,M,0.00,N,0.0,K,A*02
$GPGGA,071331.000,3109.9245,N,12124.0221,E,1,08,1.01,8.2,M,8.0,M,,0000*55
$GPGSA,A,3,23,15,24,18,12,05,10,32,,,,,1.31,1.01,0.83*06
$GPGSV,3,1,11,24,70,049,17,23,69,341,29,42,48,146,,18,46,218,29*70
$GPGSV,3,2,11,10,34,320,18,15,34,062,11,12,21,140,26,32,16,275,16*71
$GPGSV,3,3,11,05,13,127,16,25,11,169,,13,06,066,*40
$GPRMC,071331.000,A,3109.9245,N,12124.0221,E,0.00,143.81,290921,,,A*63
$GPVTG,143.81,T,,M,0.00,N,0.0,K,A*02
$GPGGA,071332.000,3109.9245,N,12124.0218,E,1,08,1.01,8.3,M,8.0,M,,0000*5D
$GPGSA,A,3,23,15,24,18,12,05,10,32,,,,,1.31,1.01,0.83*06
$GPGSV,3,1,11,24,70,049,17,23,69,341,30,42,48,146,,18,46,218,30*70
$GPGSV,3,2,11,10,34,320,19,15,34,062,11,12,21,140,26,32,16,275,17*71
$GPGSV,3,3,11,05,13,127,16,25,11,169,,13,06,066,*40
$GPRMC,071332.000,A,3109.9245,N,12124.0218,E,0.00,143.81,290921,,,A*6A
$GPVTG,143.81,T,,M,0.00,N,0.0,K,A*02
$GPGGA,071333.000,3109.9244,N,12124.0214,E,1,08,1.01,8.4,M,8.0,M,,0000*56
$GPGSA,A,3,23,15,24,18,12,05,10,32,,,,,1.31,1.01,0.83*06
$GPGSV,3,1,11,24,70,049,18,23,69,341,30,42,48,146,,18,46,218,30*7F
$GPGSV,3,2,11,10,34,320,19,15,34,062,12,12,21,140,22,32,16,275,17*76
$GPGSV,3,3,11,05,13,127,17,25,11,169,,13,06,066,*41
$GPRMC,071333.000,A,3109.9244,N,12124.0214,E,0.00,143.81,290921,,,A*66
$GPVTG,143.81,T,,M,0.00,N,0.0,K,A*02
$GPGGA,071334.000,3109.9243,N,12124.0210,E,1,08,1.01,8.5,M,8.0,M,,0000*53
$GPGSA,A,3,23,15,24,18,12,05,10,32,,,,,1.31,1.01,0.83*06
$GPGSV,3,1,11,24,70,049,18,23,69,341,31,42,48,146,,18,46,218,30*7E
$GPGSV,3,2,11,10,34,320,19,15,34,062,15,12,21,140,23,32,16,275,17*70
$GPGSV,3,3,11,05,13,127,17,25,11,169,,13,06,066,*41
$GPRMC,071334.000,A,3109.9243,N,12124.0210,E,0.00,143.81,290921,,,A*62
$GPVTG,143.81,T,,M,0.00,N,0.0,K,A*02
$GPGGA,071335.000,3109.9244,N,12124.0208,E,1,08,1.01,8.6,M,8.0,M,,0000*5F
$GPGSA,A,3,23,15,24,18,12,05,10,32,,,,,1.31,1.01,0.83*06
$GPGSV,3,1,11,24,70,049,18,23,69,341,31,42,48,146,,18,46,218,30*7E
$GPGSV,3,2,11,10,34,320,19,15,34,062,15,12,21,140,21,32,16,275,16*73
$GPGSV,3,3,11,05,13,127,16,25,11,169,,13,06,066,*40
$GPRMC,071335.000,A,3109.9244,N,12124.0208,E,0.00,143.81,290921,,,A*6D
$GPVTG,143.81,T,,M,0.00,N,0.0,K,A*02
$GPGGA,071336.000,3109.9244,N,12124.0207,E,1,08,1.01,8.7,M,8.0,M,,0000*52
$GPGSA,A,3,23,15,24,18,12,05,10,32,,,,,1.31,1.01,0.83*06
$GPGSV,3,1,11,24,70,048,18,23,69,341,31,42,48,146,,18,46,218,29*77
$GPGSV,3,2,11,10,34,320,19,15,34,062,11,12,21,140,20,32,16,275,16*76
$GPGSV,3,3,11,05,13,127,17,25,11,169,,13,06,066,*41
$GPRMC,071336.000,A,3109.9244,N,12124.0207,E,0.00,143.81,290921,,,A*61
$GPVTG,143.81,T,,M,0.00,N,0.0,K,A*02
$GPGGA,071337.000,3109.9243,N,12124.0206,E,1,08,1.01,8.7,M,8.0,M,,0000*55
$GPGSA,A,3,23,15,24,18,12,05,10,32,,,,,1.31,1.01,0.83*06
$GPGSV,3,1,11,24,70,048,18,23,69,341,24,42,48,146,,18,46,218,19*70
$GPGSV,3,2,11,10,34,320,19,15,34,062,14,12,21,140,19,32,16,275,15*7A
$GPGSV,3,3,11,05,13,127,17,25,11,169,17,13,06,066,*47
$GPRMC,071337.000,A,3109.9243,N,12124.0206,E,0.00,143.81,290921,,,A*66
$GPVTG,143.81,T,,M,0.00,N,0.0,K,A*02
$GPGGA,071338.000,3109.9243,N,12124.0203,E,1,08,1.01,8.8,M,8.0,M,,0000*50
$GPGSA,A,3,23,15,24,18,12,05,10,32,,,,,1.31,1.01,0.83*06
$GPGSV,3,1,11,24,70,048,20,23,69,341,24,42,48,146,,18,46,218,20*71
$GPGSV,3,2,11,10,34,320,19,15,34,062,15,12,21,140,18,32,16,275,14*7B
$GPGSV,3,3,11,05,13,127,16,25,11,169,,13,06,066,*40
$GPRMC,071338.000,A,3109.9243,N,12124.0203,E,0.00,143.81,290921,,,A*6C
$GPVTG,143.81,T,,M,0.00,N,0.0,K,A*02
$GPGGA,071339.000,3109.9244,N,12124.0200,E,1,08,1.01,8.8,M,8.0,M,,0000*55
$GPGSA,A,3,23,15,24,18,12,05,10,32,,,,,1.31,1.01,0.83*06
$GPGSV,3,1,11,24,70,048,21,23,69,341,24,42,48,146,,18,46,218,32*73
$GPGSV,3,2,11,10,34,320,18,15,34,062,14,12,21,140,20,32,16,275,17*73
$GPGSV,3,3,11,05,13,127,16,25,11,169,,13,06,066,*40
$GPRMC,071339.000,A,3109.9244,N,12124.0200,E,0.00,143.81,290921,,,A*69
$GPVTG,143.81,T,,M,0.00,N,0.0,K,A*02
$GPGGA,071340.000,3109.9245,N,12124.0196,E,1,08,1.01,8.8,M,8.0,M,,0000*56
$GPGSA,A,3,23,15,24,18,12,05,10,32,,,,,1.31,1.01,0.83*06
$GPGSV,3,1,11,24,70,048,20,23,69,341,26,18,46,218,32,50,45,139,*76
$GPGSV,3,2,11,10,34,320,17,15,34,062,14,12,21,140,18,32,16,275,17*77
$GPGSV,3,3,11,05,13,127,16,25,11,169,,13,06,066,*40
$GPRMC,071340.000,A,3109.9245,N,12124.0196,E,0.00,143.81,290921,,,A*6A
$GPVTG,143.81,T,,M,0.00,N,0.0,K,A*02
$GPGGA,071341.000,3109.9244,N,12124.0190,E,1,08,1.01,8.9,M,8.0,M,,0000*51
$GPGSA,A,3,23,15,24,18,12,05,10,32,,,,,1.31,1.01,0.83*06
$GPGSV,3,1,11,24,70,048,20,23,69,341,27,18,46,218,32,50,45,139,*77
$GPGSV,3,2,11,10,34,320,17,15,34,062,14,12,21,140,18,32,16,275,14*74
$GPGSV,3,3,11,05,13,127,16,25,11,169,,13,06,066,*40
$GPRMC,071341.000,A,3109.9244,N,12124.0190,E,0.00,143.81,290921,,,A*6C
$GPVTG,143.81,T,,M,0.00,N,0.0,K,A*02
$GPGGA,071342.000,3109.9245,N,12124.0187,E,1,08,1.01,9.0,M,8.0,M,,0000*5D
$GPGSA,A,3,23,15,24,18,12,05,10,32,,,,,1.31,1.01,0.83*06
$GPGSV,3,1,11,24,70,048,22,23,69,341,28,18,46,218,32,50,45,139,*7A
$GPGSV,3,2,11,10,34,320,17,15,34,062,14,12,21,140,21,32,16,275,15*7F
$GPGSV,3,3,11,05,13,127,16,25,11,169,,13,06,066,*40
$GPRMC,071342.000,A,3109.9245,N,12124.0187,E,0.00,143.81,290921,,,A*68
$GPVTG,143.81,T,,M,0.00,N,0.0,K,A*02
$GPGGA,071343.000,3109.9242,N,12124.0184,E,1,08,1.01,9.0,M,8.0,M,,0000*58
$GPGSA,A,3,23,15,24,18,12,05,10,32,,,,,1.31,1.01,0.83*06
$GPGSV,3,1,11,24,70,048,24,23,69,341,28,18,46,218,33,50,45,139,*7D
$GPGSV,3,2,11,10,34,320,17,15,34,062,16,12,21,140,33,32,16,275,15*7E
$GPGSV,3,3,11,05,13,127,16,25,11,169,,13,06,066,*40
$GPRMC,071343.000,A,3109.9242,N,12124.0184,E,0.00,143.81,290921,,,A*6D
$GPVTG,143.81,T,,M,0.00,N,0.0,K,A*02
$GPGGA,071344.000,3109.9236,N,12124.0185,E,1,08,1.01,9.1,M,8.0,M,,0000*5C
$GPGSA,A,3,23,15,24,18,12,05,10,32,,,,,1.31,1.01,0.83*06
$GPGSV,3,1,11,24,70,048,26,23,69,341,29,18,46,218,32,50,45,139,*7F
$GPGSV,3,2,11,10,34,320,16,15,34,062,15,12,21,140,26,32,16,275,14*79
$GPGSV,3,3,11,05,13,127,17,25,11,169,,13,06,066,*41
$GPRMC,071344.000,A,3109.9236,N,12124.0185,E,3.09,169.40,290921,,,A*67
$GPVTG,169.40,T,,M,3.09,N,5.7,K,A*0F
$GPGGA,071345.000,3109.9222,N,12124.0188,E,1,08,1.01,8.8,M,8.0,M,,0000*5D
$GPGSA,A,3,23,15,24,18,12,05,10,32,,,,,1.31,1.01,0.83*06
$GPGSV,3,1,11,24,70,048,27,23,69,341,30,18,46,218,31,50,45,139,*75
$GPGSV,3,2,11,10,34,320,15,15,34,062,17,12,21,140,29,32,16,275,15*76
$GPGSV,3,3,11,05,13,127,17,25,11,169,16,13,06,066,*46
$GPRMC,071345.000,A,3109.9222,N,12124.0188,E,4.63,158.94,290921,,,A*6E
$GPVTG,158.94,T,,M,4.63,N,8.6,K,A*03
$GPGGA,071346.000,3109.9202,N,12124.0201,E,1,08,1.06,8.7,M,8.0,M,,0000*56
$GPGSA,A,3,23,15,24,18,12,05,10,32,,,,,1.85,1.06,1.51*00
$GPGSV,3,1,11,24,70,048,26,23,69,341,30,18,46,218,31,50,45,139,*74
$GPGSV,3,2,11,10,34,320,15,15,34,062,15,12,21,140,31,32,16,275,16*7E
$GPGSV,3,3,11,05,13,127,17,25,11,169,15,13,06,066,*45
$GPRMC,071346.000,A,3109.9202,N,12124.0201,E,6.93,159.62,290921,,,A*68
$GPVTG,159.62,T,,M,6.93,N,12.8,K,A*33
$GPGGA,071347.000,3109.9181,N,12124.0210,E,1,08,1.06,8.8,M,8.0,M,,0000*50
$GPGSA,A,3,23,15,24,18,12,05,10,32,,,,,1.85,1.06,1.51*00
$GPGSV,3,1,11,24,70,048,25,23,69,341,30,18,46,218,31,50,45,139,*77
$GPGSV,3,2,11,10,34,320,16,15,34,062,17,12,21,140,29,32,16,275,19*79
$GPGSV,3,3,11,05,13,127,28,25,11,169,14,13,06,066,*48
$GPRMC,071347.000,A,3109.9181,N,12124.0210,E,7.29,160.22,290921,,,A*6F
$GPVTG,160.22,T,,M,7.29,N,13.5,K,A*31
$GPGGA,071348.000,3109.9159,N,12124.0223,E,1,08,1.06,8.8,M,8.0,M,,0000*5A
$GPGSA,A,3,23,15,24,18,12,05,10,32,,,,,1.85,1.06,1.51*00
$GPGSV,3,1,11,24,70,048,25,23,69,341,30,18,46,218,32,50,45,139,*74
$GPGSV,3,2,11,10,34,320,17,15,34,062,17,12,21,140,32,32,16,275,19*72
$GPGSV,3,3,11,05,13,127,26,25,11,169,17,13,06,066,*45
$GPRMC,071348.000,A,3109.9159,N,12124.0223,E,7.22,160.85,290921,,,A*63
$GPVTG,160.85,T,,M,7.22,N,13.4,K,A*36
$GPGGA,071349.000,3109.9138,N,12124.0237,E,1,08,1.06,8.8,M,8.0,M,,0000*59
$GPGSA,A,3,23,15,24,18,12,05,10,32,,,,,1.85,1.06,1.51*00
$GPGSV,3,1,11,24,70,048,24,23,69,341,30,18,46,218,33,10,34,320,17*7A
$GPGSV,3,2,11,15,34,062,17,12,21,140,33,44,20,250,,32,16,275,18*76
$GPGSV,3,3,11,05,13,127,19,25,11,169,21,13,06,066,*4C
$GPRMC,071349.000,A,3109.9138,N,12124.0237,E,6.56,163.13,290921,,,A*6E
$GPVTG,163.13,T,,M,6.56,N,12.1,K,A*3C
$GPGGA,071350.000,3109.9109,N,12124.0256,E,1,08,1.06,8.9,M,8.0,M,,0000*55
$GPGSA,A,3,23,15,24,18,12,05,10,32,,,,,1.85,1.06,1.51*00
$GPGSV,3,1,11,24,70,048,22,23,69,341,31,18,46,218,33,10,34,320,17*7D
$GPGSV,3,2,11,15,34,062,18,12,21,140,32,44,20,250,,32,16,275,17*77
$GPGSV,3,3,11,05,13,127,19,25,11,169,21,13,06,066,*4C
$GPRMC,071350.000,A,3109.9109,N,12124.0256,E,6.28,159.01,290921,,,A*60
$GPVTG,159.01,T,,M,6.28,N,11.6,K,A*3B
$GPGGA,071351.000,3109.9089,N,12124.0266,E,1,08,1.06,8.9,M,8.0,M,,0000*5E
$GPGSA,A,3,23,15,24,18,12,05,10,32,,,,,1.85,1.06,1.51*00
$GPGSV,3,1,11,24,70,048,30,23,69,341,32,18,46,218,33,10,34,320,18*72
$GPGSV,3,2,11,15,34,062,19,12,21,140,32,44,20,250,,32,16,275,18*79
$GPGSV,3,3,11,05,13,127,18,25,11,169,23,13,06,066,*4F
$GPRMC,071351.000,A,3109.9089,N,12124.0266,E,6.67,160.39,290921,,,A*61
$GPVTG,160.39,T,,M,6.67,N,12.4,K,A*30
$GPGGA,071352.000,3109.9067,N,12124.0272,E,1,08,1.06,9.0,M,8.0,M,,0000*50
$GPGSA,A,3,23,15,24,18,12,05,10,32,,,,,1.85,1.06,1.51*00
$GPGSV,3,1,11,24,70,048,29,23,69,341,33,18,46,218,33,10,34,320,20*70
$GPGSV,3,2,11,15,34,062,20,12,21,140,32,44,20,250,,32,16,275,18*73
$GPGSV,3,3,11,05,12,127,17,25,11,169,25,13,06,066,*47
$GPRMC,071352.000,A,3109.9067,N,12124.0272,E,6.61,163.51,290921,,,A*6C
$GPVTG,163.51,T,,M,6.61,N,12.2,K,A*3D
$GPGGA,071353.000,3109.9046,N,12124.0278,E,1,08,1.06,9.0,M,8.0,M,,0000*58
$GPGSA,A,3,23,15,24,18,12,05,10,32,,,,,1.85,1.06,1.51*00
$GPGSV,3,1,11,24,70,048,28,23,69,341,32,18,46,218,34,10,34,320,21*76
$GPGSV,3,2,11,15,34,062,20,12,21,140,31,44,20,250,,32,16,275,19*71
$GPGSV,3,3,11,05,12,127,18,25,11,169,26,13,06,066,*4B
$GPRMC,071353.000,A,3109.9046,N,12124.0278,E,6.54,165.84,290921,,,A*6C
$GPVTG,165.84,T,,M,6.54,N,12.1,K,A*36
$GPGGA,071354.000,3109.9031,N,12124.0284,E,1,08,1.06,9.1,M,8.0,M,,0000*5D
$GPGSA,A,3,23,15,24,18,12,05,10,32,,,,,1.85,1.06,1.51*00
$GPGSV,3,1,11,24,70,048,28,23,69,341,32,18,46,218,34,10,34,320,23*74
$GPGSV,3,2,11,15,34,062,21,12,21,140,31,44,20,250,,32,16,275,20*7A
$GPGSV,3,3,11,05,12,127,18,25,11,169,26,13,06,066,*4B
$GPRMC,071354.000,A,3109.9031,N,12124.0284,E,4.96,168.22,290921,,,A*65
$GPVTG,168.22,T,,M,4.96,N,9.2,K,A*02
$GPGGA,071355.000,3109.9017,N,12124.0286,E,1,08,1.06,9.2,M,8.0,M,,0000*59
$GPGSA,A,3,23,15,24,18,12,05,10,32,,,,,1.85,1.06,1.51*00
$GPGSV,3,1,11,24,70,048,27,23,69,341,32,18,46,218,34,10,34,320,24*7C
$GPGSV,3,2,11,15,34,062,20,12,21,140,31,44,20,250,,32,16,275,20*7B
$GPGSV,3,3,11,05,12,127,18,25,11,169,24,13,06,066,*49
$GPRMC,071355.000,A,3109.9017,N,12124.0286,E,3.92,168.78,290921,,,A*6E
$GPVTG,168.78,T,,M,3.92,N,7.3,K,A*01
$GPGGA,071356.000,3109.9007,N,12124.0287,E,1,08,1.06,9.4,M,8.0,M,,0000*5C
$GPGSA,A,3,23,15,24,18,12,05,10,32,,,,,1.85,1.06,1.51*00
$GPGSV,3,1,11,24,70,048,26,23,69,341,32,18,46,218,34,10,34,320,25*7C
$GPGSV,3,2,11,15,34,062,19,12,21,140,32,44,20,250,,32,16,275,21*73
$GPGSV,3,3,11,05,12,127,15,25,11,169,17,13,06,066,*44
$GPRMC,071356.000,A,3109.9007,N,12124.0287,E,2.95,170.59,290921,,,A*61
$GPVTG,170.59,T,,M,2.95,N,5.5,K,A*09
$GPGGA,071357.000,3109.9001,N,12124.0288,E,1,08,1.01,9.5,M,8.0,M,,0000*52
$GPGSA,A,3,23,15,24,18,12,05,10,32,,,,,1.31,1.01,0.83*06
$GPGSV,3,1,11,24,70,048,26,23,69,341,32,18,46,218,34,10,35,320,26*7E
$GPGSV,3,2,11,15,34,062,26,12,21,140,33,44,20,250,,32,16,275,29*76
$GPGSV,3,3,11,05,12,127,13,25,11,169,17,13,06,066,*42
$GPRMC,071357.000,A,3109.9001,N,12124.0288,E,0.00,170.59,290921,,,A*67
$GPVTG,170.59,T,,M,0.00,N,0.0,K,A*07
$GPGGA,071358.000,3109.8995,N,12124.0291,E,1,08,1.01,10.9,M,8.0,M,,0000*64
$GPGSA,A,3,23,15,24,18,12,05,10,32,,,,,1.31,1.01,0.83*06
$GPGSV,3,1,11,24,70,048,26,23,69,341,32,18,46,218,34,10,35,320,26*7E
$GPGSV,3,2,11,15,34,062,25,12,21,140,34,44,20,250,,32,16,275,29*72
$GPGSV,3,3,11,05,12,127,17,25,11,169,,13,06,066,*40
$GPRMC,071358.000,A,3109.8995,N,12124.0291,E,0.00,170.59,290921,,,A*65
$GPVTG,170.59,T,,M,0.00,N,0.0,K,A*07
$GPGGA,071359.000,3109.8990,N,12124.0294,E,1,08,1.01,12.5,M,8.0,M,,0000*6B
$GPGSA,A,3,23,15,24,18,12,05,10,32,,,,,1.31,1.01,0.83*06
$GPGSV,3,1,11,24,70,048,26,23,69,341,32,18,46,218,34,10,35,320,27*7F
$GPGSV,3,2,11,15,34,062,25,12,21,139,34,40,19,251,,32,16,275,30*7B
$GPGSV,3,3,11,05,12,127,17,25,11,169,,13,06,066,*40
$GPRMC,071359.000,A,3109.8990,N,12124.0294,E,0.00,170.59,290921,,,A*64
$GPVTG,170.59,T,,M,0.00,N,0.0,K,A*07
$GPGGA,071400.000,3109.8981,N,12124.0297,E,1,08,1.01,13.5,M,8.0,M,,0000*62
$GPGSA,A,3,23,15,24,18,12,05,10,32,,,,,1.31,1.01,0.83*06
$GPGSV,3,1,11,24,70,048,26,23,69,341,33,18,46,218,35,10,35,320,26*7E
$GPGSV,3,2,11,15,34,062,32,12,21,139,35,40,19,251,,32,16,275,30*7C
$GPGSV,3,3,11,05,12,127,22,25,11,169,23,13,06,066,*47
$GPRMC,071400.000,A,3109.8981,N,12124.0297,E,0.00,170.59,290921,,,A*6C
$GPVTG,170.59,T,,M,0.00,N,0.0,K,A*07
$GPGGA,071401.000,3109.8977,N,12124.0298,E,1,08,1.01,13.6,M,8.0,M,,0000*66
$GPGSA,A,3,23,15,24,18,12,05,10,32,,,,,1.31,1.01,0.83*06
$GPGSV,3,1,11,24,70,048,27,23,69,341,33,18,46,218,35,10,35,320,18*72
$GPGSV,3,2,11,15,34,062,31,12,21,139,35,40,19,251,,32,16,275,28*76
$GPGSV,3,3,11,05,12,127,18,25,11,169,26,13,06,066,*4B
$GPRMC,071401.000,A,3109.8977,N,12124.0298,E,0.00,170.59,290921,,,A*6B
$GPVTG,170.59,T,,M,0.00,N,0.0,K,A*07
$GPGGA,071402.000,3109.8973,N,12124.0299,E,1,08,1.01,13.7,M,8.0,M,,0000*61
$GPGSA,A,3,23,15,24,18,12,05,10,32,,,,,1.31,1.01,0.83*06
$GPGSV,3,1,11,24,70,048,27,23,69,341,34,18,46,218,35,10,35,320,18*75
$GPGSV,3,2,11,15,34,063,29,12,21,139,35,40,19,251,,32,16,275,28*7E
$GPGSV,3,3,11,05,12,127,18,25,11,169,25,13,06,066,*48
$GPRMC,071402.000,A,3109.8973,N,12124.0299,E,0.00,170.59,290921,,,A*6D
$GPVTG,170.59,T,,M,0.00,N,0.0,K,A*07
$GPGGA,071403.000,3109.8973,N,12124.0299,E,1,08,1.06,13.7,M,8.0,M,,0000*67
$GPGSA,A,3,23,15,24,18,12,05,10,32,,,,,1.85,1.06,1.51*00
$GPGSV,3,1,11,24,70,048,26,23,69,341,33,18,46,218,35,10,35,320,20*78
$GPGSV,3,2,11,15,34,063,28,12,21,139,35,40,19,251,,32,16,275,28*7F
$GPGSV,3,3,11,05,12,127,17,25,11,169,25,13,06,066,*47
$GPRMC,071403.000,A,3109.8973,N,12124.0299,E,0.00,170.59,290921,,,A*6C
$GPVTG,170.59,T,,M,0.00,N,0.0,K,A*07
$GPGGA,071404.000,3109.8971,N,12124.0300,E,1,08,1.01,13.8,M,8.0,M,,0000*6B
$GPGSA,A,3,23,15,24,18,12,05,10,32,,,,,1.31,1.01,0.83*06
$GPGSV,3,1,11,24,70,048,26,23,69,341,33,18,46,218,35,10,35,320,21*79
$GPGSV,3,2,11,15,34,063,26,12,21,139,34,40,19,251,,32,16,275,28*70
$GPGSV,3,3,11,05,12,127,18,25,11,169,24,13,06,066,*49
$GPRMC,071404.000,A,3109.8971,N,12124.0300,E,0.00,170.59,290921,,,A*68
$GPVTG,170.59,T,,M,0.00,N,0.0,K,A*07
$GPGGA,071405.000,3109.8968,N,12124.0302,E,1,08,1.01,13.8,M,8.0,M,,0000*60
$GPGSA,A,3,23,15,24,18,12,05,10,32,,,,,1.31,1.01,0.83*06
$GPGSV,3,1,11,24,70,048,26,23,69,341,34,18,46,218,35,10,35,320,20*7F
$GPGSV,3,2,11,15,34,063,24,12,21,139,35,40,19,251,,32,16,275,26*7D
$GPGSV,3,3,11,05,12,127,19,25,11,169,24,13,06,066,*48
$GPRMC,071405.000,A,3109.8968,N,12124.0302,E,0.00,170.59,290921,,,A*63
$GPVTG,170.59,T,,M,0.00,N,0.0,K,A*07
$GPGGA,071406.000,3109.8957,N,12124.0308,E,1,08,1.01,14.0,M,8.0,M,,0000*6A
$GPGSA,A,3,23,15,24,18,12,05,10,32,,,,,1.31,1.01,0.83*06
$GPGSV,3,1,11,24,70,048,24,23,69,341,33,18,46,218,36,10,35,320,20*79
$GPGSV,3,2,11,15,34,063,23,12,21,139,36,40,19,251,,32,16,275,26*79
$GPGSV,3,3,11,05,12,127,19,25,11,169,25,13,06,066,*49
$GPRMC,071406.000,A,3109.8957,N,12124.0308,E,0.00,170.59,290921,,,A*66
$GPVTG,170.59,T,,M,0.00,N,0.0,K,A*07
$GPGGA,071407.000,3109.8948,N,12124.0312,E,1,08,1.01,14.2,M,8.0,M,,0000*6C
$GPGSA,A,3,23,15,24,18,12,05,10,32,,,,,1.31,1.01,0.83*06
$GPGSV,3,1,11,24,70,048,24,23,69,341,33,18,46,218,36,10,35,320,29*70
$GPGSV,3,2,11,15,34,063,24,12,21,139,37,40,19,251,,32,16,275,25*7C
$GPGSV,3,3,11,05,12,127,18,25,11,169,19,13,06,066,*47
$GPRMC,071407.000,A,3109.8948,N,12124.0312,E,0.00,170.59,290921,,,A*62
$GPVTG,170.59,T,,M,0.00,N,0.0,K,A*07
$GPGGA,071408.000,3109.8941,N,12124.0316,E,1,08,1.01,14.6,M,8.0,M,,0000*6A
$GPGSA,A,3,23,15,24,18,12,05,10,32,,,,,1.31,1.01,0.83*06
$GPGSV,3,1,11,24,70,048,23,23,69,341,33,18,46,218,36,10,35,320,28*76
$GPGSV,3,2,11,15,34,063,24,12,21,139,37,40,19,251,,32,16,275,26*7F
$GPGSV,3,3,11,05,12,127,18,25,11,169,21,13,06,066,*4C
$GPRMC,071408.000,A,3109.8941,N,12124.0316,E,0.00,170.59,290921,,,A*60
$GPVTG,170.59,T,,M,0.00,N,0.0,K,A*07
$GPGGA,071409.000,3109.8934,N,12124.0321,E,1,08,1.01,15.1,M,8.0,M,,0000*6B
$GPGSA,A,3,23,15,24,18,12,05,10,32,,,,,1.31,1.01,0.83*06
$GPGSV,3,1,11,24,70,048,24,23,69,341,33,18,46,218,36,10,35,320,21*78
$GPGSV,3,2,11,15,34,063,23,12,21,139,37,32,16,275,28,05,12,127,18*77
$GPGSV,3,3,11,25,11,169,22,13,06,066,,34,,,*73
$GPRMC,071409.000,A,3109.8934,N,12124.0321,E,0.00,170.59,290921,,,A*67
$GPVTG,170.59,T,,M,0.00,N,0.0,K,A*07
$GPGGA,071410.000,3109.8925,N,12124.0323,E,1,08,1.01,15.4,M,8.0,M,,0000*64
$GPGSA,A,3,23,15,24,18,12,05,10,32,,,,,1.31,1.01,0.83*06
$GPGSV,3,1,11,24,70,048,23,23,69,341,33,18,46,218,35,10,35,320,30*7C
$GPGSV,3,2,11,15,34,063,23,12,21,139,37,32,16,275,28,05,12,127,20*7C
$GPGSV,3,3,11,25,11,169,,13,06,066,,34,,,*73
$GPRMC,071410.000,A,3109.8925,N,12124.0323,E,0.00,170.59,290921,,,A*6D
$GPVTG,170.59,T,,M,0.00,N,0.0,K,A*07
$GPGGA,071411.000,3109.8913,N,12124.0328,E,1,08,1.01,15.4,M,8.0,M,,0000*6B
$GPGSA,A,3,23,15,24,18,12,05,10,32,,,,,1.31,1.01,0.83*06
$GPGSV,3,1,11,24,70,048,22,23,69,341,33,18,46,218,35,10,35,320,31*7C
$GPGSV,3,2,11,15,34,063,23,12,21,139,30,32,16,275,29,05,12,127,19*70
$GPGSV,3,3,11,25,11,169,,13,06,066,,34,,,*73
$GPRMC,071411.000,A,3109.8913,N,12124.0328,E,4.60,157.32,290921,,,A*68
$GPVTG,157.32,T,,M,4.60,N,8.5,K,A*00
$GPGGA,071412.000,3109.8899,N,12124.0335,E,1,08,1.06,15.5,M,8.0,M,,0000*61
$GPGSA,A,3,23,15,24,18,12,05,10,32,,,,,1.85,1.06,1.51*00
$GPGSV,3,1,11,24,70,048,21,23,69,341,32,18,46,218,33,10,35,320,31*78
$GPGSV,3,2,11,15,34,063,24,12,21,139,29,32,16,275,28,05,12,127,19*7E
$GPGSV,3,3,11,25,11,168,22,13,06,066,,34,,,*72
$GPRMC,071412.000,A,3109.8899,N,12124.0335,E,5.99,157.38,290921,,,A*69
$GPVTG,157.38,T,,M,5.99,N,11.1,K,A*31
$GPGGA,071413.000,3109.8881,N,12124.0343,E,1,08,1.06,15.6,M,8.0,M,,0000*6B
$GPGSA,A,3,23,15,24,18,12,05,10,32,,,,,1.85,1.06,1.51*00
$GPGSV,3,1,11,24,70,048,20,23,69,341,24,18,46,218,33,10,35,320,30*7F
$GPGSV,3,2,11,15,34,063,24,12,21,139,29,32,16,275,27,05,12,127,20*7B
$GPGSV,3,3,11,25,11,168,21,13,06,066,,34,,,*71
$GPRMC,071413.000,A,3109.8881,N,12124.0343,E,6.77,157.85,290921,,,A*65
$GPVTG,157.85,T,,M,6.77,N,12.5,K,A*33
$GPGGA,071414.000,3109.8863,N,12124.0351,E,1,08,1.06,15.5,M,8.0,M,,0000*60
$GPGSA,A,3,23,15,24,18,12,05,10,32,,,,,1.85,1.06,1.51*00
$GPGSV,3,1,11,24,70,048,22,23,69,341,24,18,46,218,33,10,35,320,30*7D
$GPGSV,3,2,11,15,34,063,25,12,21,139,28,32,16,275,26,05,12,127,20*7A
$GPGSV,3,3,11,25,11,168,17,13,06,066,,34,,,*74
$GPRMC,071414.000,A,3109.8863,N,12124.0351,E,7.05,159.93,290921,,,A*60
$GPVTG,159.93,T,,M,7.05,N,13.1,K,A*3B
$GPGGA,071415.000,3109.8841,N,12124.0359,E,1,08,1.06,15.5,M,8.0,M,,0000*69
$GPGSA,A,3,23,15,24,18,12,05,10,32,,,,,1.85,1.06,1.51*00
$GPGSV,3,1,11,24,70,048,23,23,69,341,24,18,46,218,31,10,35,320,30*7E
$GPGSV,3,2,11,15,34,063,26,12,21,139,27,32,16,275,25,05,12,127,20*75
$GPGSV,3,3,11,25,11,168,17,13,06,066,,35,,,*75
$GPRMC,071415.000,A,3109.8841,N,12124.0359,E,7.87,161.52,290921,,,A*65
$GPVTG,161.52,T,,M,7.87,N,14.6,K,A*37
$GPGGA,071416.000,3109.8817,N,12124.0366,E,1,08,1.06,15.5,M,8.0,M,,0000*65
$GPGSA,A,3,23,15,24,18,12,05,10,32,,,,,1.85,1.06,1.51*00
$GPGSV,3,1,11,24,70,048,23,23,69,341,24,18,46,218,19,10,35,320,29*7C
$GPGSV,3,2,11,15,34,063,26,12,21,139,26,32,16,275,25,05,12,127,20*74
$GPGSV,3,3,11,25,11,168,16,13,06,066,,35,,,*74
$GPRMC,071416.000,A,3109.8817,N,12124.0366,E,8.82,164.30,290921,,,A*62
$GPVTG,164.30,T,,M,8.82,N,16.3,K,A*3B
$GPGGA,071417.000,3109.8789,N,12124.0375,E,1,08,1.06,15.5,M,8.0,M,,0000*6E
$GPGSA,A,3,23,15,24,18,12,05,10,32,,,,,1.85,1.06,1.51*00
$GPGSV,3,1,11,24,70,048,23,23,69,341,24,18,46,218,18,10,35,320,20*74
$GPGSV,3,2,11,15,34,063,25,12,21,139,26,32,16,275,26,05,12,127,20*74
$GPGSV,3,3,11,25,11,168,17,13,06,066,,35,,,*75
$GPRMC,071417.000,A,3109.8789,N,12124.0375,E,10.02,164.08,290921,,,A*53
$GPVTG,164.08,T,,M,10.02,N,18.6,K,A*0A
$GPGGA,071418.000,3109.8762,N,12124.0387,E,1,08,1.01,15.5,M,8.0,M,,0000*6E
$GPGSA,A,3,23,15,24,18,12,05,10,32,,,,,1.31,1.01,0.83*06
$GPGSV,3,1,11,24,70,048,22,23,69,341,25,18,46,218,13,10,35,320,19*75
$GPGSV,3,2,11,15,34,063,25,12,21,139,25,32,16,275,26,05,12,127,20*77
$GPGSV,3,3,11,25,11,168,19,13,06,066,,35,,,*7B
$GPRMC,071418.000,A,3109.8762,N,12124.0387,E,10.32,162.98,290921,,,A*58
$GPVTG,162.98,T,,M,10.32,N,19.1,K,A*00
$GPGGA,071419.000,3109.8732,N,12124.0399,E,1,08,1.06,15.4,M,8.0,M,,0000*63
$GPGSA,A,3,23,15,24,18,12,05,10,32,,,,,1.85,1.06,1.51*00
$GPGSV,3,1,11,24,70,048,21,23,69,341,26,18,46,218,14,10,35,320,18*73
$GPGSV,3,2,11,15,34,063,26,12,21,139,26,32,16,275,27,05,12,127,21*77
$GPGSV,3,3,11,25,11,168,19,13,06,066,,35,,,*7B
$GPRMC,071419.000,A,3109.8732,N,12124.0399,E,10.92,162.56,290921,,,A*5B
$GPVTG,162.56,T,,M,10.92,N,20.2,K,A*01
$GPGGA,071420.000,3109.8700,N,12124.0413,E,1,08,1.06,15.3,M,8.0,M,,0000*6A
$GPGSA,A,3,23,15,24,18,12,05,10,32,,,,,1.85,1.06,1.51*00
$GPGSV,3,1,11,24,70,048,21,23,69,341,26,18,46,218,15,10,35,320,16*7C
$GPGSV,3,2,11,15,34,063,26,12,21,139,25,32,16,275,17,05,12,127,23*75
$GPGSV,3,3,11,25,11,168,18,13,06,066,,35,,,*7A
