$BDGSV,3,1,11,06,47,200,,11,57,282,,12,46,187,,13,58,338,,0*73
$BDGSV,3,2,11,21,55,023,,22,12,060,,34,60,232,,38,73,043,,0*78
$BDGSV,3,3,11,42,48,286,,43,35,306,,44,24,170,,0*46
$GNRMC,040435.000,A,3102.88838,N,12114.11582,E,303.35,131.00,260921,,,E,V*08
$GNVTG,131.00,T,,M,303.35,N,561.81,K,E*29
$GNZDA,040435.000,26,09,2021,00,00*42
$GPTXT,01,01,01,ANTENNA OK*35
$GPTXT,01,01,02,INS_INF=3,9,0,2,0,RAM,1*6D
$GNGGA,040436.000,3103.09162,N,12113.96057,E,6,00,25.5,-19875.3,M,0.0,M,,*6E
$GNGLL,3103.09162,N,12113.96057,E,040436.000,A,E*46
$GNGSA,A,2,,,,,,,,,,,,,25.5,25.5,25.5,1*02
$GNGSA,A,2,,,,,,,,,,,,,25.5,25.5,25.5,4*07
$GPGSV,3,1,12,02,45,136,,05,59,012,,13,86,072,,15,59,242,,0*6C
$GPGSV,3,2,12,18,15,317,,20,44,063,,24,07,187,,29,42,268,,0*66
$GPGSV,3,3,12,30,23,063,,193,73,052,,194,09,153,,195,44,169,,0*58
$BDGSV,3,1,11,06,47,200,,11,57,282,,12,46,187,,13,58,338,,0*73
$BDGSV,3,2,11,21,55,023,,22,12,060,,34,60,232,,38,73,044,,0*7F
$BDGSV,3,3,11,42,48,286,,43,35,306,,44,24,170,,0*46
$GNRMC,040436.000,A,3103.09162,N,12113.96057,E,320.48,133.59,260921,,,E,V*05
$GNVTG,133.59,T,,M,320.48,N,593.53,K,E*2E
$GNZDA,040436.000,26,09,2021,00,00*41
$GPTXT,01,01,01,ANTENNA OK*35
$GPTXT,01,01,02,INS_INF=3,9,0,2,0,RAM,1*6D
$GNGGA,040437.000,3103.42060,N,12113.79377,E,6,00,25.5,-19982.1,M,0.0,M,,*68
$GNGLL,3103.42060,N,12113.79377,E,040437.000,A,E*4B
$GNGSA,A,2,,,,,,,,,,,,,25.5,25.5,25.5,1*02
$GNGSA,A,2,,,,,,,,,,,,,25.5,25.5,25.5,4*07
$GPGSV,3,1,12,02,45,136,,05,59,012,,13,86,072,,15,59,242,,0*6C
$GPGSV,3,2,12,18,15,317,,20,44,063,,24,07,187,,29,42,268,,0*66
$GPGSV,3,3,12,30,23,063,,193,73,052,,194,09,153,,195,44,169,,0*58
$BDGSV,3,1,11,06,47,200,,11,57,282,,12,46,187,,13,58,338,,0*73
$BDGSV,3,2,11,21,55,023,,22,12,060,,34,60,232,,38,73,044,,0*7F
$BDGSV,3,3,11,42,48,286,,43,35,306,,44,24,170,,0*46
$GNRMC,040437.000,A,3103.42060,N,12113.79377,E,338.67,137.76,260921,,,E,V*05
$GNVTG,137.76,T,,M,338.67,N,627.21,K,E*2A
$GNZDA,040437.000,26,09,2021,00,00*40
$GPTXT,01,01,01,ANTENNA OK*35
$GPTXT,01,01,02,INS_INF=3,9,0,2,0,RAM,1*6D
$GNGGA,040438.000,3103.81412,N,12113.58914,E,6,00,25.5,-20132.2,M,0.0,M,,*6F
$GNGLL,3103.81412,N,12113.58914,E,040438.000,A,E*46
$GNGSA,A,2,,,,,,,,,,,,,25.5,25.5,25.5,1*02
$GNGSA,A,2,,,,,,,,,,,,,25.5,25.5,25.5,4*07
$GPGSV,3,1,12,02,45,136,,05,59,012,,13,86,071,,15,59,242,,0*6F
$GPGSV,3,2,12,18,15,317,,20,44,063,,24,07,187,,29,42,268,,0*66
$GPGSV,3,3,12,30,23,063,,193,73,052,,194,09,153,,195,44,169,,0*58
$BDGSV,3,1,11,06,47,200,,11,57,282,,12,46,187,,13,58,338,,0*73
$BDGSV,3,2,11,21,55,023,,22,12,060,,34,60,232,,38,73,044,,0*7F
$BDGSV,3,3,11,42,48,286,,43,35,306,,44,24,170,,0*46
$GNRMC,040438.000,A,3103.81412,N,12113.58914,E,361.80,143.35,260921,,,E,V*09
$GNVTG,143.35,T,,M,361.80,N,670.06,K,E*2C
$GNZDA,040438.000,26,09,2021,00,00*4F
$GPTXT,01,01,01,ANTENNA OK*35
$GPTXT,01,01,02,INS_INF=3,9,0,2,0,RAM,1*6D
$GNGGA,040439.000,3104.16804,N,12113.41855,E,6,00,25.5,-20177.1,M,0.0,M,,*62
$GNGLL,3104.16804,N,12113.41855,E,040439.000,A,E*49
$GNGSA,A,2,,,,,,,,,,,,,25.5,25.5,25.5,1*02
$GNGSA,A,2,,,,,,,,,,,,,25.5,25.5,25.5,4*07
$GPGSV,3,1,12,02,45,136,,05,59,012,,13,86,071,,15,59,242,,0*6F
$GPGSV,3,2,12,18,15,317,,20,44,063,,24,07,187,,29,42,268,,0*66
$GPGSV,3,3,12,30,23,063,,193,73,052,,194,09,153,,195,44,169,,0*58
$BDGSV,3,1,11,06,47,200,,11,57,282,,12,46,187,,13,58,338,,0*73
$BDGSV,3,2,11,21,55,023,,22,12,060,,34,60,232,,38,73,044,,0*7F
$BDGSV,3,3,11,42,48,286,,43,35,306,,44,24,170,,0*46
$GNRMC,040439.000,A,3104.16804,N,12113.41855,E,379.53,146.78,260921,,,E,V*0D
$GNVTG,146.78,T,,M,379.53,N,702.89,K,E*24
$GNZDA,040439.000,26,09,2021,00,00*4E
$GPTXT,01,01,01,ANTENNA OK*35
$GPTXT,01,01,02,INS_INF=3,9,0,2,0,RAM,1*6D
$GNGGA,040440.000,3103.94760,N,12113.53386,E,6,00,25.5,-20760.6,M,0.0,M,,*6D
$GNGLL,3103.94760,N,12113.53386,E,040440.000,A,E*41
$GNGSA,A,2,,,,,,,,,,,,,25.5,25.5,25.5,1*02
$GNGSA,A,2,,,,,,,,,,,,,25.5,25.5,25.5,4*07
$GPGSV,3,1,12,02,45,136,,05,59,012,,13,86,071,,15,59,242,,0*6F
$GPGSV,3,2,12,18,15,317,,20,44,063,,24,07,187,,29,42,268,,0*66
$GPGSV,3,3,12,30,23,063,,193,73,052,,194,09,153,,195,44,169,,0*58
$BDGSV,3,1,11,06,47,200,,11,57,282,,12,46,187,,13,58,338,,0*73
$BDGSV,3,2,11,21,55,023,,22,12,060,,34,60,232,,38,73,044,,0*7F
$BDGSV,3,3,11,42,48,286,,43,35,306,,44,24,170,,0*46
$GNRMC,040440.000,A,3103.94760,N,12113.53386,E,403.88,150.11,260921,,,E,V*01
$GNVTG,150.11,T,,M,403.88,N,747.99,K,E*20
$GNZDA,040440.000,26,09,2021,00,00*40
$GPTXT,01,01,01,ANTENNA OK*35
$GPTXT,01,01,02,INS_INF=3,9,0,2,0,RAM,1*6D
$GNGGA,040441.000,3103.60070,N,12113.80971,E,6,00,25.5,-21162.4,M,0.0,M,,*6A
$GNGLL,3103.60070,N,12113.80971,E,040441.000,A,E*41
$GNGSA,A,2,,,,,,,,,,,,,25.5,25.5,25.5,1*02
$GNGSA,A,2,,,,,,,,,,,,,25.5,25.5,25.5,4*07
$GPGSV,3,1,12,02,45,136,,05,59,012,,13,85,071,,15,59,242,,0*6C
$GPGSV,3,2,12,18,15,317,,20,44,063,,24,07,187,,29,42,268,,0*66
$GPGSV,3,3,12,30,23,063,,193,73,052,,194,09,153,,195,44,169,,0*58
$BDGSV,3,1,11,06,47,200,,11,57,282,,12,46,187,,13,58,338,,0*73
$BDGSV,3,2,11,21,55,023,,22,12,060,,34,60,232,,38,73,044,,0*7F
$BDGSV,3,3,11,42,48,286,,43,35,306,,44,24,170,,0*46
$GNRMC,040441.000,A,3103.60070,N,12113.80971,E,420.71,157.24,260921,,,E,V*07
$GNVTG,157.24,T,,M,420.71,N,779.16,K,E*2C
$GNZDA,040441.000,26,09,2021,00,00*41
$GPTXT,01,01,01,ANTENNA OK*35
$GPTXT,01,01,02,INS_INF=3,9,0,2,0,RAM,1*6D
$GNGGA,040442.000,3103.66783,N,12113.83154,E,6,00,25.5,-21271.5,M,0.0,M,,*68
$GNGLL,3103.66783,N,12113.83154,E,040442.000,A,E*43
$GNGSA,A,2,,,,,,,,,,,,,25.5,25.5,25.5,1*02
$GNGSA,A,2,,,,,,,,,,,,,25.5,25.5,25.5,4*07
$GPGSV,3,1,12,02,45,136,,05,59,012,,13,85,071,,15,59,242,,0*6C
$GPGSV,3,2,12,18,15,317,,20,44,063,,24,07,187,,29,42,268,,0*66
$GPGSV,3,3,12,30,23,063,,193,73,052,,194,09,153,,195,44,169,,0*58
$BDGSV,3,1,11,06,47,200,,11,57,282,,12,46,187,,13,58,338,,0*73
$BDGSV,3,2,11,21,55,023,,22,12,060,,34,60,232,,38,73,044,,0*7F
$BDGSV,3,3,11,42,48,286,,43,35,306,,44,24,170,,0*46
$GNRMC,040442.000,A,3103.66783,N,12113.83154,E,438.53,162.04,260921,,,E,V*08
$GNVTG,162.04,T,,M,438.53,N,812.15,K,E*20
$GNZDA,040442.000,26,09,2021,00,00*42
$GPTXT,01,01,01,ANTENNA OK*35
$GPTXT,01,01,02,INS_INF=3,9,0,2,0,RAM,1*6D
$GNGGA,040443.000,3103.82998,N,12113.74644,E,6,00,25.5,-21264.8,M,0.0,M,,*60
$GNGLL,3103.82998,N,12113.74644,E,040443.000,A,E*42
$GNGSA,A,2,,,,,,,,,,,,,25.5,25.5,25.5,1*02
$GNGSA,A,2,,,,,,,,,,,,,25.5,25.5,25.5,4*07
$GPGSV,3,1,12,02,45,136,,05,59,012,,13,85,071,,15,59,242,,0*6C
$GPGSV,3,2,12,18,15,317,,20,44,063,,24,07,187,,29,42,268,,0*66
$GPGSV,3,3,12,30,23,063,,193,73,052,,194,09,153,,195,44,169,,0*58
$BDGSV,3,1,11,06,47,200,,11,57,282,,12,46,187,,13,58,338,,0*73
$BDGSV,3,2,11,21,55,023,,22,12,060,,34,60,232,,38,73,044,,0*7F
$BDGSV,3,3,11,42,48,286,,43,35,306,,44,24,170,,0*46
$GNRMC,040443.000,A,3103.82998,N,12113.74644,E,463.49,165.51,260921,,,E,V*0B
$GNVTG,165.51,T,,M,463.49,N,858.38,K,E*23
$GNZDA,040443.000,26,09,2021,00,00*43
$GPTXT,01,01,01,ANTENNA OK*35
$GPTXT,01,01,02,INS_INF=3,9,0,2,0,RAM,1*6D
$GNGGA,040444.000,3103.95302,N,12113.70310,E,6,00,25.5,-21140.5,M,0.0,M,,*60
$GNGLL,3103.95302,N,12113.70310,E,040444.000,A,E*4A
$GNGSA,A,2,,,,,,,,,,,,,25.5,25.5,25.5,1*02
$GNGSA,A,2,,,,,,,,,,,,,25.5,25.5,25.5,4*07
$GPGSV,3,1,12,02,45,136,,05,59,012,,13,85,071,,15,59,242,,0*6C
$GPGSV,3,2,12,18,15,317,,20,44,063,,24,07,187,,29,42,268,,0*66
$GPGSV,3,3,12,30,23,063,,193,73,052,,194,09,153,,195,44,169,,0*58
$BDGSV,3,1,11,06,47,200,,11,57,281,,12,46,187,,13,58,338,,0*70
$BDGSV,3,2,11,21,55,023,,22,12,060,,34,60,232,,38,73,044,,0*7F
$BDGSV,3,3,11,42,48,286,,43,35,306,,44,24,170,,0*46
$GNRMC,040444.000,A,3103.95302,N,12113.70310,E,483.45,168.90,260921,,,E,V*01
$GNVTG,168.90,T,,M,483.45,N,895.35,K,E*2D
$GNZDA,040444.000,26,09,2021,00,00*44
$GPTXT,01,01,01,ANTENNA OK*35
$GPTXT,01,01,02,INS_INF=3,9,0,2,0,RAM,1*6D
$GNGGA,040445.000,3103.75738,N,12113.90745,E,6,00,25.5,-21422.7,M,0.0,M,,*6B
$GNGLL,3103.75738,N,12113.90745,E,040445.000,A,E*42
$GNGSA,A,2,,,,,,,,,,,,,25.5,25.5,25.5,1*02
$GNGSA,A,2,,,,,,,,,,,,,25.5,25.5,25.5,4*07
$GPGSV,3,1,12,02,45,136,,05,59,012,,13,85,071,,15,59,242,,0*6C
$GPGSV,3,2,12,18,15,317,,20,44,063,,24,07,187,,29,42,268,,0*66
$GPGSV,3,3,12,30,23,063,,193,73,052,,194,09,153,,195,44,169,,0*58
$BDGSV,3,1,11,06,47,200,,11,57,281,,12,46,187,,13,58,338,,0*70
$BDGSV,3,2,11,21,55,023,,22,12,060,,34,60,232,,38,73,044,,0*7F
$BDGSV,3,3,11,42,48,286,,43,35,306,,44,24,170,,0*46
$GNRMC,040445.000,A,3103.75738,N,12113.90745,E,519.25,174.01,260921,,,E,V*08
$GNVTG,174.01,T,,M,519.25,N,961.65,K,E*23
$GNZDA,040445.000,26,09,2021,00,00*45
$GPTXT,01,01,01,ANTENNA OK*35
$GPTXT,01,01,02,INS_INF=3,9,0,2,0,RAM,1*6D
$GNGGA,040446.000,3103.39360,N,12114.33544,E,6,00,25.5,-21842.9,M,0.0,M,,*60
$GNGLL,3103.39360,N,12114.33544,E,040446.000,A,E*4D
$GNGSA,A,2,,,,,,,,,,,,,25.5,25.5,25.5,1*02
$GNGSA,A,2,,,,,,,,,,,,,25.5,25.5,25.5,4*07
$GPGSV,3,1,12,02,45,136,,05,59,012,,13,85,071,,15,59,242,,0*6C
$GPGSV,3,2,12,18,15,317,,20,44,063,,24,07,187,,29,42,268,,0*66
$GPGSV,3,3,12,30,23,063,,193,73,052,,194,09,153,,195,44,169,,0*58
$BDGSV,3,1,11,06,47,200,,11,57,281,,12,46,187,,13,58,338,,0*70
$BDGSV,3,2,11,21,55,023,,22,12,060,,34,60,232,,38,73,044,,0*7F
$BDGSV,3,3,11,42,48,286,,43,35,306,,44,24,170,,0*46
$GNRMC,040446.000,A,3103.39360,N,12114.33544,E,543.61,180.37,260921,,,E,V*06
$GNVTG,180.37,T,,M,543.61,N,1006.77,K,E*18
$GNZDA,040446.000,26,09,2021,00,00*46
$GPTXT,01,01,01,ANTENNA OK*35
$GPTXT,01,01,02,INS_INF=3,9,0,2,0,RAM,1*6D
$GNGGA,040447.000,3102.91469,N,12114.88066,E,6,00,25.5,-22020.2,M,0.0,M,,*6D
$GNGLL,3102.91469,N,12114.88066,E,040447.000,A,E*44
$GNGSA,A,2,,,,,,,,,,,,,25.5,25.5,25.5,1*02
$GNGSA,A,2,,,,,,,,,,,,,25.5,25.5,25.5,4*07
$GPGSV,3,1,12,02,45,136,,05,59,012,,13,85,071,,15,59,242,,0*6C
$GPGSV,3,2,12,18,15,317,,20,44,063,,24,07,187,,29,42,268,,0*66
$GPGSV,3,3,12,30,23,063,,193,73,052,,194,09,153,,195,44,169,,0*58
$BDGSV,3,1,11,06,47,200,,11,57,281,,12,46,187,,13,58,338,,0*70
$BDGSV,3,2,11,21,55,023,,22,12,060,,34,60,232,,38,73,044,,0*7F
$BDGSV,3,3,11,42,48,286,,43,35,306,,44,24,170,,0*46
$GNRMC,040447.000,A,3102.91469,N,12114.88066,E,551.71,184.77,260921,,,E,V*0D
$GNVTG,184.77,T,,M,551.71,N,1021.77,K,E*1F
$GNZDA,040447.000,26,09,2021,00,00*47
$GPTXT,01,01,01,ANTENNA OK*35
$GPTXT,01,01,02,INS_INF=3,9,0,2,0,RAM,1*6D
$GNGGA,040448.000,3103.01317,N,12114.94067,E,6,00,25.5,-22031.4,M,0.0,M,,*6E
$GNGLL,3103.01317,N,12114.94067,E,040448.000,A,E*41
$GNGSA,A,2,,,,,,,,,,,,,25.5,25.5,25.5,1*02
$GNGSA,A,2,,,,,,,,,,,,,25.5,25.5,25.5,4*07
$GPGSV,3,1,12,02,45,136,,05,59,012,,13,85,071,,15,59,242,,0*6C
$GPGSV,3,2,12,18,15,317,,20,44,063,,24,07,187,,29,42,268,,0*66
$GPGSV,3,3,12,30,23,063,,193,73,052,,194,09,153,,195,44,169,,0*58
$BDGSV,3,1,11,06,47,200,,11,57,281,,12,46,187,,13,58,338,,0*70
$BDGSV,3,2,11,21,55,023,,22,12,060,,34,60,232,,38,73,044,,0*7F
$BDGSV,3,3,11,42,48,286,,43,35,306,,44,24,170,,0*46
$GNRMC,040448.000,A,3103.01317,N,12114.94067,E,574.64,187.10,260921,,,E,V*09
$GNVTG,187.10,T,,M,574.64,N,1064.24,K,E*19
$GNZDA,040448.000,26,09,2021,00,00*48
$GPTXT,01,01,01,ANTENNA OK*35
$GPTXT,01,01,02,INS_INF=3,9,0,2,0,RAM,1*6D
$GNGGA,040449.000,3103.17813,N,12114.96991,E,6,00,25.5,-22029.9,M,0.0,M,,*61
$GNGLL,3103.17813,N,12114.96991,E,040449.000,A,E*4A
$GNGSA,A,2,,,,,,,,,,,,,25.5,25.5,25.5,1*02
$GNGSA,A,2,,,,,,,,,,,,,25.5,25.5,25.5,4*07
$GPGSV,3,1,12,02,45,136,,05,59,012,,13,85,070,,15,59,242,,0*6D
$GPGSV,3,2,12,18,15,317,,20,44,063,,24,07,187,,29,42,268,,0*66
$GPGSV,3,3,12,30,23,063,,193,73,052,,194,09,153,,195,44,169,,0*58
$BDGSV,3,1,11,06,47,200,,11,57,281,,12,46,187,,13,58,338,,0*70
$BDGSV,3,2,11,21,55,023,,22,12,060,,34,60,231,,38,73,044,,0*7C
$BDGSV,3,3,11,42,48,286,,43,35,306,,44,24,170,,0*46
$GNRMC,040449.000,A,3103.17813,N,12114.96991,E,599.91,189.19,260921,,,E,V*0C
$GNVTG,189.19,T,,M,599.91,N,1111.04,K,E*16
$GNZDA,040449.000,26,09,2021,00,00*49
$GPTXT,01,01,01,ANTENNA OK*35
$GPTXT,01,01,02,INS_INF=3,9,0,2,0,RAM,1*6D
$GNGGA,040450.000,3103.28263,N,12115.02769,E,6,00,25.5,-21984.2,M,0.0,M,,*6B
$GNGLL,3103.28263,N,12115.02769,E,040450.000,A,E*46
$GNGSA,A,2,,,,,,,,,,,,,25.5,25.5,25.5,1*02
$GNGSA,A,2,,,,,,,,,,,,,25.5,25.5,25.5,4*07
$GPGSV,3,1,12,02,45,136,,05,59,012,,13,85,070,,15,59,242,,0*6D
$GPGSV,3,2,12,18,15,317,,20,44,063,,24,07,187,,29,42,268,,0*66
$GPGSV,3,3,12,30,23,063,,193,73,052,,194,09,153,,195,44,169,,0*58
$BDGSV,3,1,11,06,47,200,,11,57,281,,12,46,187,,13,58,338,,0*70
$BDGSV,3,2,11,21,55,023,,22,12,060,,34,60,231,,38,73,044,,0*7C
$BDGSV,3,3,11,42,48,286,,43,35,306,,44,24,170,,0*46
$GNRMC,040450.000,A,3103.28263,N,12115.02769,E,616.27,192.24,260921,,,E,V*0D
$GNVTG,192.24,T,,M,616.27,N,1141.32,K,E*1B
$GNZDA,040450.000,26,09,2021,00,00*41
$GPTXT,01,01,01,ANTENNA OK*35
$GPTXT,01,01,02,INS_INF=3,9,0,2,0,RAM,1*6D
$GNGGA,040451.000,3103.40651,N,12115.08325,E,6,00,25.5,-21919.7,M,0.0,M,,*66
$GNGLL,3103.40651,N,12115.08325,E,040451.000,A,E*4A
$GNGSA,A,2,,,,,,,,,,,,,25.5,25.5,25.5,1*02
$GNGSA,A,2,,,,,,,,,,,,,25.5,25.5,25.5,4*07
$GPGSV,3,1,12,02,45,136,,05,59,012,,13,85,070,,15,59,242,,0*6D
$GPGSV,3,2,12,18,15,317,,20,44,063,,24,07,187,,29,42,268,,0*66
$GPGSV,3,3,12,30,23,063,,193,73,052,,194,09,153,,195,44,169,,0*58
$BDGSV,3,1,11,06,47,200,,11,57,281,,12,46,187,,13,58,338,,0*70
$BDGSV,3,2,11,21,55,023,,22,12,060,,34,60,231,,38,73,044,,0*7C
$BDGSV,3,3,11,42,48,286,,43,35,306,,44,24,170,,0*46
$GNRMC,040451.000,A,3103.40651,N,12115.08325,E,634.51,194.98,260921,,,E,V*01
$GNVTG,194.98,T,,M,634.51,N,1175.10,K,E*1C
$GNZDA,040451.000,26,09,2021,00,00*40
$GPTXT,01,01,01,ANTENNA OK*35
$GPTXT,01,01,02,INS_INF=3,9,0,2,0,RAM,1*6D
$GNGGA,040452.000,3103.54387,N,12115.14592,E,6,00,25.5,-21857.4,M,0.0,M,,*61
$GNGLL,3103.54387,N,12115.14592,E,040452.000,A,E*45
$GNGSA,A,2,,,,,,,,,,,,,25.5,25.5,25.5,1*02
$GNGSA,A,2,,,,,,,,,,,,,25.5,25.5,25.5,4*07
$GPGSV,3,1,12,02,45,136,,05,59,012,,13,85,070,,15,59,242,,0*6D
$GPGSV,3,2,12,18,15,317,,20,44,063,,24,07,187,,29,42,268,,0*66
$GPGSV,3,3,12,30,23,063,,193,73,052,,194,09,153,,195,44,169,,0*58
$BDGSV,3,1,11,06,47,200,,11,57,281,,12,46,187,,13,58,338,,0*70
$BDGSV,3,2,11,21,55,023,,22,12,060,,34,60,231,,38,73,044,,0*7C
$BDGSV,3,3,11,42,48,286,,43,35,306,,44,24,170,,0*46
$GNRMC,040452.000,A,3103.54387,N,12115.14592,E,655.85,197.19,260921,,,E,V*0A
$GNVTG,197.19,T,,M,655.85,N,1214.64,K,E*1F
$GNZDA,040452.000,26,09,2021,00,00*43
$GPTXT,01,01,01,ANTENNA OK*35
$GPTXT,01,01,02,INS_INF=3,9,0,2,0,RAM,1*6D
$GNGGA,040453.000,3103.68898,N,12115.22237,E,6,00,25.5,-21794.7,M,0.0,M,,*64
$GNGLL,3103.68898,N,12115.22237,E,040453.000,A,E*43
$GNGSA,A,2,,,,,,,,,,,,,25.5,25.5,25.5,1*02
$GNGSA,A,2,,,,,,,,,,,,,25.5,25.5,25.5,4*07
$GPGSV,3,1,12,02,45,136,,05,59,012,,13,85,070,,15,59,242,,0*6D
$GPGSV,3,2,12,18,15,317,,20,44,063,,24,07,187,,29,42,268,,0*66
$GPGSV,3,3,12,30,23,063,,193,73,052,,194,09,153,,195,44,169,,0*58
$BDGSV,3,1,11,06,47,200,,11,57,281,,12,46,187,,13,58,338,,0*70
$BDGSV,3,2,11,21,55,023,,22,12,060,,34,60,231,,38,73,044,,0*7C
$BDGSV,3,3,11,42,48,286,,43,35,306,,44,24,170,,0*46
$GNRMC,040453.000,A,3103.68898,N,12115.22237,E,679.30,199.58,260921,,,E,V*07
$GNVTG,199.58,T,,M,679.30,N,1258.07,K,E*19
$GNZDA,040453.000,26,09,2021,00,00*42
$GPTXT,01,01,01,ANTENNA OK*35
$GPTXT,01,01,02,INS_INF=3,9,0,2,0,RAM,1*6D
$GNGGA,040454.000,3103.85139,N,12115.31014,E,6,00,25.5,-21713.2,M,0.0,M,,*69
$GNGLL,3103.85139,N,12115.31014,E,040454.000,A,E*44
$GNGSA,A,2,,,,,,,,,,,,,25.5,25.5,25.5,1*02
$GNGSA,A,2,,,,,,,,,,,,,25.5,25.5,25.5,4*07
$GPGSV,3,1,12,02,45,136,,05,59,012,,13,85,070,,15,59,242,,0*6D
$GPGSV,3,2,12,18,15,317,,20,44,063,,24,08,187,,29,42,268,,0*69
$GPGSV,3,3,12,30,23,063,,193,73,052,,194,09,153,,195,44,169,,0*58
$BDGSV,3,1,11,06,47,200,,11,57,281,,12,46,187,,13,58,338,,0*70
$BDGSV,3,2,11,21,55,023,,22,12,060,,34,60,231,,38,73,044,,0*7C
$BDGSV,3,3,11,42,48,286,,43,35,306,,44,24,170,,0*46
$GNRMC,040454.000,A,3103.85139,N,12115.31014,E,703.71,202.22,260921,,,E,V*05
$GNVTG,202.22,T,,M,703.71,N,1303.26,K,E*10
$GNZDA,040454.000,26,09,2021,00,00*45
$GPTXT,01,01,01,ANTENNA OK*35
$GPTXT,01,01,02,INS_INF=3,9,0,2,0,RAM,1*6D
$GNGGA,040455.000,3103.85139,N,12115.31014,E,6,00,25.5,-21713.2,M,0.0,M,,*68
$GNGLL,3103.85139,N,12115.31014,E,040455.000,A,E*45
$GNGSA,A,2,,,,,,,,,,,,,25.5,25.5,25.5,1*02
$GNGSA,A,2,,,,,,,,,,,,,25.5,25.5,25.5,4*07
$GPGSV,3,1,12,02,45,136,,05,59,012,,13,85,070,,15,59,242,,0*6D
$GPGSV,3,2,12,18,15,317,,20,44,063,,24,08,187,,29,42,268,,0*69
$GPGSV,3,3,12,30,23,063,,193,73,052,,194,09,153,,195,44,169,,0*58
$BDGSV,3,1,11,06,47,200,,11,57,281,,12,46,187,,13,58,338,,0*70
$BDGSV,3,2,11,21,55,023,,22,12,060,,34,60,231,,38,73,044,,0*7C
$BDGSV,3,3,11,42,48,286,,43,35,306,,44,24,170,,0*46
$GNRMC,040455.000,A,3103.85139,N,12115.31014,E,703.71,202.22,260921,,,E,V*04
$GNVTG,202.22,T,,M,703.71,N,1303.26,K,E*10
$GNZDA,040455.000,26,09,2021,00,00*44
$GPTXT,01,01,01,ANTENNA OK*35
$GPTXT,01,01,02,INS_INF=3,9,0,2,0,RAM,1*6D
$GNGGA,040456.000,3104.01431,N,12115.40771,E,6,00,25.5,-21616.0,M,0.0,M,,*69
$GNGLL,3104.01431,N,12115.40771,E,040456.000,A,E*42
$GNGSA,A,2,,,,,,,,,,,,,25.5,25.5,25.5,1*02
$GNGSA,A,2,,,,,,,,,,,,,25.5,25.5,25.5,4*07
$GPGSV,3,1,12,02,45,136,,05,59,012,,13,85,070,,15,59,242,,0*6D
$GPGSV,3,2,12,18,15,317,,20,44,063,,24,08,187,,29,42,268,,0*69
$GPGSV,3,3,12,30,23,063,,193,73,052,,194,09,153,,195,44,169,,0*58
$BDGSV,3,1,11,06,47,200,,11,57,281,,12,46,187,,13,58,338,,0*70
$BDGSV,3,2,11,21,55,023,,22,12,060,,34,60,231,,38,73,044,,0*7C
$BDGSV,3,3,11,42,48,286,,43,35,306,,44,24,170,,0*46
$GNRMC,040456.000,A,3104.01431,N,12115.40771,E,726.46,205.10,260921,,,E,V*06
$GNVTG,205.10,T,,M,726.46,N,1345.41,K,E*16
$GNZDA,040456.000,26,09,2021,00,00*47
$GPTXT,01,01,01,ANTENNA OK*35
$GPTXT,01,01,02,INS_INF=3,9,0,2,0,RAM,1*6D
$GNGGA,040457.000,3104.19962,N,12115.51366,E,6,00,25.5,-21475.3,M,0.0,M,,*6C
$GNGLL,3104.19962,N,12115.51366,E,040457.000,A,E*43
$GNGSA,A,2,,,,,,,,,,,,,25.5,25.5,25.5,1*02
$GNGSA,A,2,,,,,,,,,,,,,25.5,25.5,25.5,4*07
$GPGSV,3,1,12,02,45,136,,05,59,012,,13,85,070,,15,59,242,,0*6D
$GPGSV,3,2,12,18,15,317,,20,44,063,,24,08,187,,29,42,268,,0*69
$GPGSV,3,3,12,30,23,063,,193,73,052,,194,09,153,,195,44,169,,0*58
$BDGSV,3,1,11,06,47,200,,11,57,281,,12,46,187,,13,58,338,,0*70
$BDGSV,3,2,11,21,55,023,,22,12,060,,34,60,231,,38,73,044,,0*7C
$BDGSV,3,3,11,42,48,286,,43,35,306,,44,24,170,,0*46
$GNRMC,040457.000,A,3104.19962,N,12115.51366,E,747.34,207.81,260921,,,E,V*0F
$GNVTG,207.81,T,,M,747.34,N,1384.08,K,E*1E
$GNZDA,040457.000,26,09,2021,00,00*46
$GPTXT,01,01,01,ANTENNA OK*35
$GPTXT,01,01,02,INS_INF=3,9,0,2,0,RAM,1*6D
$GNGGA,040458.000,3104.36811,N,12115.63225,E,6,00,25.5,-21353.3,M,0.0,M,,*6F
$GNGLL,3104.36811,N,12115.63225,E,040458.000,A,E*43
$GNGSA,A,2,,,,,,,,,,,,,25.5,25.5,25.5,1*02
$GNGSA,A,2,,,,,,,,,,,,,25.5,25.5,25.5,4*07
$GPGSV,3,1,12,02,45,136,,05,59,012,,13,85,070,,15,59,242,,0*6D
$GPGSV,3,2,12,18,15,317,,20,44,063,,24,08,187,,29,42,268,,0*69
$GPGSV,3,3,12,30,23,063,,193,73,052,,194,09,153,,195,44,169,,0*58
$BDGSV,3,1,11,06,47,200,,11,57,281,,12,46,187,,13,58,338,,0*70
$BDGSV,3,2,11,21,55,023,,22,12,060,,34,60,231,,38,73,044,,0*7C
$BDGSV,3,3,11,42,48,286,,43,35,306,,44,24,170,,0*46
$GNRMC,040458.000,A,3104.36811,N,12115.63225,E,769.65,209.92,260921,,,E,V*0B
$GNVTG,209.92,T,,M,769.65,N,1425.39,K,E*14
$GNZDA,040458.000,26,09,2021,00,00*49
$GPTXT,01,01,01,ANTENNA OK*35
$GPTXT,01,01,02,INS_INF=3,9,0,2,0,RAM,1*6D
$GNGGA,040459.000,3104.54325,N,12115.76830,E,6,00,25.5,-21234.5,M,0.0,M,,*6A
$GNGLL,3104.54325,N,12115.76830,E,040459.000,A,E*40
$GNGSA,A,2,,,,,,,,,,,,,25.5,25.5,25.5,1*02
$GNGSA,A,2,,,,,,,,,,,,,25.5,25.5,25.5,4*07
$GPGSV,3,1,12,02,45,136,,05,59,012,,13,85,070,,15,59,243,,0*6C
$GPGSV,3,2,12,18,15,317,,20,44,063,,24,08,187,,29,42,268,,0*69
$GPGSV,3,3,12,30,23,063,,193,73,052,,194,09,153,,195,44,169,,0*58
$BDGSV,3,1,11,06,47,200,,11,57,281,,12,46,187,,13,58,338,,0*70
$BDGSV,3,2,11,21,55,023,,22,12,060,,34,60,231,,38,73,044,,0*7C
$BDGSV,3,3,11,42,48,286,,43,35,306,,44,24,170,,0*46
$GNRMC,040459.000,A,3104.54325,N,12115.76830,E,794.81,212.01,260921,,,E,V*00
$GNVTG,212.01,T,,M,794.81,N,1471.98,K,E*16
$GNZDA,040459.000,26,09,2021,00,00*48
$GPTXT,01,01,01,ANTENNA OK*35
$GPTXT,01,01,02,INS_INF=3,9,0,2,0,RAM,1*6D
$GNGGA,040500.000,3104.72677,N,12115.91356,E,6,00,25.5,-21098.9,M,0.0,M,,*6B
$GNGLL,3104.72677,N,12115.91356,E,040500.000,A,E*49
$GNGSA,A,2,,,,,,,,,,,,,25.5,25.5,25.5,1*02
$GNGSA,A,2,,,,,,,,,,,,,25.5,25.5,25.5,4*07
$GPGSV,3,1,12,02,45,136,,05,59,012,,13,85,069,,15,59,243,,0*64
$GPGSV,3,2,12,18,15,317,,20,44,063,,24,08,187,,29,42,268,,0*69
$GPGSV,3,3,12,30,23,063,,193,73,052,,194,09,153,,195,44,169,,0*58
$BDGSV,3,1,11,06,47,200,,11,57,281,,12,46,187,,13,58,338,,0*70
$BDGSV,3,2,11,21,55,023,,22,12,060,,34,60,231,,38,73,044,,0*7C
$BDGSV,3,3,11,42,48,286,,43,35,306,,44,24,170,,0*46
$GNRMC,040500.000,A,3104.72677,N,12115.91356,E,819.57,214.48,260921,,,E,V*03
$GNVTG,214.48,T,,M,819.57,N,1517.84,K,E*10
$GNZDA,040500.000,26,09,2021,00,00*45
$GPTXT,01,01,01,ANTENNA OK*35
$GPTXT,01,01,02,INS_INF=3,9,0,2,0,RAM,1*6D
$GNGGA,040501.000,3104.90543,N,12116.07333,E,6,00,25.5,-20967.7,M,0.0,M,,*6B
$GNGLL,3104.90543,N,12116.07333,E,040501.000,A,E*4F
$GNGSA,A,2,,,,,,,,,,,,,25.5,25.5,25.5,1*02
$GNGSA,A,2,,,,,,,,,,,,,25.5,25.5,25.5,4*07
$GPGSV,3,1,12,02,45,136,,05,59,012,,13,85,069,,15,59,243,,0*64
$GPGSV,3,2,12,18,15,317,,20,44,063,,24,08,187,,29,42,268,,0*69
$GPGSV,3,3,12,30,23,063,,193,73,052,,194,09,153,,195,44,169,,0*58
$BDGSV,3,1,11,06,47,200,,11,57,281,,12,46,187,,13,58,338,,0*70
$BDGSV,3,2,11,21,55,023,,22,12,060,,34,60,231,,38,73,044,,0*7C
$BDGSV,3,3,11,42,48,286,,43,35,306,,44,24,170,,0*46
$GNRMC,040501.000,A,3104.90543,N,12116.07333,E,846.03,216.56,260921,,,E,V*03
$GNVTG,216.56,T,,M,846.03,N,1566.85,K,E*11
$GNZDA,040501.000,26,09,2021,00,00*44
$GPTXT,01,01,01,ANTENNA OK*35
$GPTXT,01,01,02,INS_INF=3,9,0,2,0,RAM,1*6D
$GNGGA,040502.000,3105.08519,N,12116.24653,E,6,00,25.5,-20828.8,M,0.0,M,,*60
$GNGLL,3105.08519,N,12116.24653,E,040502.000,A,E*41
$GNGSA,A,2,,,,,,,,,,,,,25.5,25.5,25.5,1*02
$GNGSA,A,2,,,,,,,,,,,,,25.5,25.5,25.5,4*07
$GPGSV,3,1,12,02,45,136,,05,59,012,,13,85,069,,15,59,243,,0*64
$GPGSV,3,2,12,18,15,317,,20,44,063,,24,08,187,,29,42,268,,0*69
$GPGSV,3,3,12,30,23,063,,193,73,052,,194,09,153,,195,44,169,,0*58
$BDGSV,3,1,11,06,47,200,,11,57,281,,12,46,187,,13,58,338,,0*70
$BDGSV,3,2,11,21,55,023,,22,12,060,,34,60,231,,38,73,044,,0*7C
$BDGSV,3,3,11,42,48,286,,43,35,306,,44,24,170,,0*46
$GNRMC,040502.000,A,3105.08519,N,12116.24653,E,872.77,218.77,260921,,,E,V*04
$GNVTG,218.77,T,,M,872.77,N,1616.38,K,E*1A
$GNZDA,040502.000,26,09,2021,00,00*47
$GPTXT,01,01,01,ANTENNA OK*35
$GPTXT,01,01,02,INS_INF=3,9,0,2,0,RAM,1*6D
$GNGGA,040503.000,3105.26972,N,12116.43074,E,6,00,25.5,-20685.2,M,0.0,M,,*6D
$GNGLL,3105.26972,N,12116.43074,E,040503.000,A,E*4F
$GNGSA,A,2,,,,,,,,,,,,,25.5,25.5,25.5,1*02
$GNGSA,A,2,,,,,,,,,,,,,25.5,25.5,25.5,4*07
$GPGSV,3,1,12,02,45,136,,05,59,012,,13,85,069,,15,59,243,,0*64
$GPGSV,3,2,12,18,15,317,,20,44,063,,24,08,187,,29,42,268,,0*69
$GPGSV,3,3,12,30,23,063,,193,73,052,,194,09,153,,195,44,169,,0*58
$BDGSV,3,1,11,06,47,200,,11,57,281,,12,46,187,,13,58,338,,0*70
$BDGSV,3,2,11,21,55,023,,22,12,060,,34,60,231,,38,73,044,,0*7C
$BDGSV,3,3,11,42,48,286,,43,35,306,,44,24,170,,0*46
$GNRMC,040503.000,A,3105.26972,N,12116.43074,E,900.17,220.82,260921,,,E,V*09
$GNVTG,220.82,T,,M,900.17,N,1667.11,K,E*14
$GNZDA,040503.000,26,09,2021,00,00*46
$GPTXT,01,01,01,ANTENNA OK*35
$GPTXT,01,01,02,INS_INF=3,9,0,2,0,RAM,1*6D
$GNGGA,040504.000,3105.37626,N,12116.68123,E,6,00,25.5,-20482.2,M,0.0,M,,*6B
$GNGLL,3105.37626,N,12116.68123,E,040504.000,A,E*4C
$GNGSA,A,2,,,,,,,,,,,,,25.5,25.5,25.5,1*02
$GNGSA,A,2,,,,,,,,,,,,,25.5,25.5,25.5,4*07
$GPGSV,3,1,12,02,45,136,,05,59,012,,13,85,069,,15,59,243,,0*64
$GPGSV,3,2,12,18,15,317,,20,44,063,,24,08,187,,29,42,268,,0*69
$GPGSV,3,3,12,30,23,063,,193,73,052,,194,09,153,,195,44,169,,0*58
$BDGSV,3,1,11,06,47,200,,11,57,281,,12,46,187,,13,58,338,,0*70
$BDGSV,3,2,11,21,55,023,,22,12,060,,34,60,231,,38,73,044,,0*7C
$BDGSV,3,3,11,42,48,286,,43,35,306,,44,24,170,,0*46
$GNRMC,040504.000,A,3105.37626,N,12116.68123,E,918.99,222.65,260921,,,E,V*0E
$GNVTG,222.65,T,,M,918.99,N,1701.96,K,E*1E
$GNZDA,040504.000,26,09,2021,00,00*41
$GPTXT,01,01,01,ANTENNA OK*35
$GPTXT,01,01,02,INS_INF=3,9,0,2,0,RAM,1*6D
$GNGGA,040505.000,3105.25922,N,12117.23868,E,6,00,25.5,-20688.2,M,0.0,M,,*62
$GNGLL,3105.25922,N,12117.23868,E,040505.000,A,E*4D
$GNGSA,A,2,,,,,,,,,,,,,25.5,25.5,25.5,1*02
$GNGSA,A,2,,,,,,,,,,,,,25.5,25.5,25.5,4*07
$GPGSV,3,1,12,02,45,136,,05,59,012,,13,85,069,,15,59,243,,0*64
$GPGSV,3,2,12,18,15,317,,20,44,063,,24,08,187,,29,42,268,,0*69
$GPGSV,3,3,12,30,23,063,,193,73,052,,194,09,153,,195,44,169,,0*58
$BDGSV,3,1,11,06,47,200,,11,57,281,,12,46,187,,13,58,338,,0*70
$BDGSV,3,2,11,21,55,023,,22,12,060,,34,60,231,,38,73,044,,0*7C
$BDGSV,3,3,11,42,48,286,,43,35,306,,44,24,170,,0*46
$GNRMC,040505.000,A,3105.25922,N,12117.23868,E,952.89,223.68,260921,,,E,V*0C
$GNVTG,223.68,T,,M,952.89,N,1764.76,K,E*10
$GNZDA,040505.000,26,09,2021,00,00*40
$GPTXT,01,01,01,ANTENNA OK*35
$GPTXT,01,01,02,INS_INF=3,9,0,2,0,RAM,1*6D
$GNGGA,040506.000,3105.15567,N,12117.78235,E,6,00,25.5,-20511.5,M,0.0,M,,*67
$GNGLL,3105.15567,N,12117.78235,E,040506.000,A,E*4C
$GNGSA,A,2,,,,,,,,,,,,,25.5,25.5,25.5,1*02
$GNGSA,A,2,,,,,,,,,,,,,25.5,25.5,25.5,4*07
$GPGSV,3,1,12,02,45,136,,05,59,012,,13,85,069,,15,59,243,,0*64
$GPGSV,3,2,12,18,15,317,,20,44,063,,24,08,187,,29,42,268,,0*69
$GPGSV,3,3,12,30,23,063,,193,73,052,,194,09,153,,195,44,169,,0*58
$BDGSV,3,1,11,06,47,200,,11,57,281,,12,46,187,,13,58,338,,0*70
$BDGSV,3,2,11,21,55,023,,22,12,060,,34,60,231,,38,73,044,,0*7C
$BDGSV,3,3,11,42,48,286,,43,35,306,,44,24,170,,0*46
$GNRMC,040506.000,A,3105.15567,N,12117.78235,E,953.29,227.11,260921,,,E,V*0C
$GNVTG,227.11,T,,M,953.29,N,1765.50,K,E*14
$GNZDA,040506.000,26,09,2021,00,00*43
$GPTXT,01,01,01,ANTENNA OK*35
$GPTXT,01,01,02,INS_INF=3,9,0,2,0,RAM,1*6D
$GNGGA,040507.000,3105.06731,N,12118.42254,E,6,00,25.5,-20600.3,M,0.0,M,,*61
$GNGLL,3105.06731,N,12118.42254,E,040507.000,A,E*4F
$GNGSA,A,2,,,,,,,,,,,,,25.5,25.5,25.5,1*02
$GNGSA,A,2,,,,,,,,,,,,,25.5,25.5,25.5,4*07
$GPGSV,3,1,12,02,45,136,,05,59,012,,13,85,069,,15,59,243,,0*64
$GPGSV,3,2,12,18,15,317,,20,44,063,,24,08,187,,29,42,268,,0*69
$GPGSV,3,3,12,30,23,063,,193,73,052,,194,09,153,,195,44,169,,0*58
$BDGSV,3,1,11,06,47,200,,11,57,281,,12,46,187,,13,58,338,,0*70
$BDGSV,3,2,11,21,55,023,,22,12,060,,34,60,231,,38,73,044,,0*7C
$BDGSV,3,3,11,42,48,286,,43,35,306,,44,24,170,,0*46
$GNRMC,040507.000,A,3105.06731,N,12118.42254,E,976.71,229.62,260921,,,E,V*0F
$GNVTG,229.62,T,,M,976.71,N,1808.87,K,E*1A
$GNZDA,040507.000,26,09,2021,00,00*42
$GPTXT,01,01,01,ANTENNA OK*35
$GPTXT,01,01,02,INS_INF=3,9,0,2,0,RAM,1*6D
$GNGGA,040508.000,3105.20381,N,12118.80277,E,6,00,25.5,-20533.3,M,0.0,M,,*69
$GNGLL,3105.20381,N,12118.80277,E,040508.000,A,E*44
$GNGSA,A,2,,,,,,,,,,,,,25.5,25.5,25.5,1*02
$GNGSA,A,2,,,,,,,,,,,,,25.5,25.5,25.5,4*07
$GPGSV,3,1,12,02,45,136,,05,59,012,,13,85,069,,15,59,243,,0*64
$GPGSV,3,2,12,18,15,317,,20,44,063,,24,08,187,,29,42,268,,0*69
$GPGSV,3,3,12,30,23,063,,193,73,052,,194,09,153,,195,44,169,,0*58
$BDGSV,3,1,11,06,47,200,,11,57,281,,12,46,187,,13,58,338,,0*70
$BDGSV,3,2,11,21,55,023,,22,12,060,,34,60,231,,38,73,044,,0*7C
$BDGSV,3,3,11,42,48,286,,43,35,306,,44,24,170,,0*46
$GNRMC,040508.000,A,3105.20381,N,12118.80277,E,1002.67,229.83,260921,,,E,V*37
$GNVTG,229.83,T,,M,1002.67,N,1856.94,K,E*20
$GNZDA,040508.000,26,09,2021,00,00*4D
$GPTXT,01,01,01,ANTENNA OK*35
$GPTXT,01,01,02,INS_INF=3,9,0,2,0,RAM,1*6D
$GNGGA,040509.000,3105.41838,N,12119.08314,E,6,00,25.5,-20347.7,M,0.0,M,,*62
$GNGLL,3105.41838,N,12119.08314,E,040509.000,A,E*4E
$GNGSA,A,2,,,,,,,,,,,,,25.5,25.5,25.5,1*02
$GNGSA,A,2,,,,,,,,,,,,,25.5,25.5,25.5,4*07
$GPGSV,3,1,12,02,45,136,,05,59,012,,13,85,069,,15,59,243,,0*64
$GPGSV,3,2,12,18,15,317,,20,44,063,,24,08,187,,29,42,268,,0*69
$GPGSV,3,3,12,30,23,063,,193,73,052,,194,09,153,,195,44,169,,0*58
$BDGSV,3,1,11,06,47,200,,11,57,281,,12,46,187,,13,58,338,,0*70
$BDGSV,3,2,11,21,55,023,,22,12,060,,34,60,231,,38,73,044,,0*7C
$BDGSV,3,3,11,42,49,286,,43,35,306,,44,24,170,,0*47
$GNRMC,040509.000,A,3105.41838,N,12119.08314,E,1029.28,231.14,260921,,,E,V*38
$GNVTG,231.14,T,,M,1029.28,N,1906.23,K,E*2D
$GNZDA,040509.000,26,09,2021,00,00*4C
$GPTXT,01,01,01,ANTENNA OK*35
$GPTXT,01,01,02,INS_INF=3,9,0,2,0,RAM,1*6D
$GNGGA,040510.000,3105.60039,N,12119.36352,E,6,00,25.5,-20149.9,M,0.0,M,,*6D
$GNGLL,3105.60039,N,12119.36352,E,040510.000,A,E*43
$GNGSA,A,2,,,,,,,,,,,,,25.5,25.5,25.5,1*02
$GNGSA,A,2,,,,,,,,,,,,,25.5,25.5,25.5,4*07
$GPGSV,3,1,12,02,45,136,,05,59,012,,13,85,069,,15,59,243,,0*64
$GPGSV,3,2,12,18,15,317,,20,44,063,,24,08,187,,29,42,268,,0*69
$GPGSV,3,3,12,30,23,063,,193,73,052,,194,09,153,,195,44,169,,0*58
$BDGSV,3,1,11,06,47,200,,11,57,281,,12,46,187,,13,58,338,,0*70
$BDGSV,3,2,11,21,55,023,,22,12,060,,34,60,231,,38,73,044,,0*7C
$BDGSV,3,3,11,42,49,286,,43,35,306,,44,24,170,,0*47
$GNRMC,040510.000,A,3105.60039,N,12119.36352,E,1051.14,232.20,260921,,,E,V*31
$GNVTG,232.20,T,,M,1051.14,N,1946.72,K,E*29
$GNZDA,040510.000,26,09,2021,00,00*44
$GPTXT,01,01,01,ANTENNA OK*35
$GPTXT,01,01,02,INS_INF=3,9,0,2,0,RAM,1*6D
$GNGGA,040511.000,3105.77705,N,12119.66289,E,6,00,25.5,-19916.0,M,0.0,M,,*61
$GNGLL,3105.77705,N,12119.66289,E,040511.000,A,E*4E
$GNGSA,A,2,,,,,,,,,,,,,25.5,25.5,25.5,1*02
$GNGSA,A,2,,,,,,,,,,,,,25.5,25.5,25.5,4*07
$GPGSV,3,1,12,02,45,136,,05,59,012,,13,85,069,,15,59,243,,0*64
$GPGSV,3,2,12,18,15,317,,20,44,063,,24,08,187,,29,42,268,,0*69
$GPGSV,3,3,12,30,23,063,,193,73,052,,194,09,153,,195,44,169,,0*58
$BDGSV,3,1,11,06,47,200,,11,57,281,,12,46,187,,13,58,338,,0*70
$BDGSV,3,2,11,21,55,023,,22,12,060,,34,60,231,,38,73,044,,0*7C
$BDGSV,3,3,11,42,49,286,,43,35,306,,44,24,170,,0*47
$GNRMC,040511.000,A,3105.77705,N,12119.66289,E,1071.26,233.81,260921,,,E,V*35
$GNVTG,233.81,T,,M,1071.26,N,1983.98,K,E*2D
$GNZDA,040511.000,26,09,2021,00,00*45
$GPTXT,01,01,01,ANTENNA OK*35
$GPTXT,01,01,02,INS_INF=3,9,0,2,0,RAM,1*6D
$GNGGA,040512.000,3105.93692,N,12119.99375,E,6,00,25.5,-19697.4,M,0.0,M,,*67
$GNGLL,3105.93692,N,12119.99375,E,040512.000,A,E*4A
$GNGSA,A,2,,,,,,,,,,,,,25.5,25.5,25.5,1*02
$GNGSA,A,2,,,,,,,,,,,,,25.5,25.5,25.5,4*07
$GPGSV,3,1,12,02,45,136,,05,59,012,,13,85,068,,15,59,243,,0*65
$GPGSV,3,2,12,18,15,317,,20,44,063,,24,08,187,,29,42,267,,0*66
$GPGSV,3,3,12,30,23,063,,193,73,052,,194,09,153,,195,44,169,,0*58
$BDGSV,3,1,11,06,47,200,,11,57,281,,12,46,187,,13,58,338,,0*70
$BDGSV,3,2,11,21,55,023,,22,12,060,,34,60,231,,38,73,044,,0*7C
$BDGSV,3,3,11,42,49,286,,43,35,306,,44,24,170,,0*47
$GNRMC,040512.000,A,3105.93692,N,12119.99375,E,1091.89,235.18,260921,,,E,V*3C
$GNVTG,235.18,T,,M,1091.89,N,2022.18,K,E*29
$GNZDA,040512.000,26,09,2021,00,00*46
$GPTXT,01,01,01,ANTENNA OK*35
$GPTXT,01,01,02,INS_INF=3,9,0,2,0,RAM,1*6D
$GNGGA,040513.000,3106.11155,N,12120.32400,E,6,00,25.5,-19472.4,M,0.0,M,,*64
$GNGLL,3106.11155,N,12120.32400,E,040513.000,A,E*40
$GNGSA,A,2,,,,,,,,,,,,,25.5,25.5,25.5,1*02
$GNGSA,A,2,,,,,,,,,,,,,25.5,25.5,25.5,4*07
$GPGSV,3,1,12,02,45,136,,05,59,012,,13,85,068,,15,59,243,,0*65
$GPGSV,3,2,12,18,15,317,,20,44,063,,24,08,187,,29,42,267,,0*66
$GPGSV,3,3,12,30,23,063,,193,73,052,,194,09,153,,195,44,169,,0*58
$BDGSV,3,1,11,06,47,200,,11,57,281,,12,46,187,,13,58,338,,0*70
$BDGSV,3,2,11,21,55,023,,22,12,060,,34,60,231,,38,73,044,,0*7C
$BDGSV,3,3,11,42,49,286,,43,35,306,,44,24,170,,0*47
$GNRMC,040513.000,A,3106.11155,N,12120.32400,E,1113.52,236.59,260921,,,E,V*3D
$GNVTG,236.59,T,,M,1113.52,N,2062.24,K,E*29
$GNZDA,040513.000,26,09,2021,00,00*47
$GPTXT,01,01,01,ANTENNA OK*35
$GPTXT,01,01,02,INS_INF=3,9,0,2,0,RAM,1*6D
$GNGGA,040514.000,3106.24327,N,12120.58479,E,6,00,25.5,-19199.6,M,0.0,M,,*62
$GNGLL,3106.24327,N,12120.58479,E,040514.000,A,E*44
$GNGSA,A,2,,,,,,,,,,,,,25.5,25.5,25.5,1*02
$GNGSA,A,2,,,,,,,,,,,,,25.5,25.5,25.5,4*07
$GPGSV,3,1,12,02,45,136,,05,59,012,,13,85,068,,15,59,243,,0*65
$GPGSV,3,2,12,18,15,317,,20,44,063,,24,08,187,,29,42,267,,0*66
$GPGSV,3,3,12,30,23,063,,193,73,052,,194,09,153,,195,44,169,,0*58
$BDGSV,3,1,11,06,47,200,,11,57,281,,12,46,187,,13,58,338,,0*70
$BDGSV,3,2,11,21,55,023,,22,12,060,,34,60,231,,38,73,044,,0*7C
$BDGSV,3,3,11,42,49,286,,43,35,306,,44,24,170,,0*47
$GNRMC,040514.000,A,3106.24327,N,12120.58479,E,1126.29,236.50,260921,,,E,V*3A
$GNVTG,236.50,T,,M,1126.29,N,2085.89,K,E*24
$GNZDA,040514.000,26,09,2021,00,00*40
$GPTXT,01,01,01,ANTENNA OK*35
$GPTXT,01,01,02,INS_INF=3,9,0,2,0,RAM,1*6D
$GNGGA,040515.000,3106.37497,N,12120.77021,E,6,00,25.5,-18842.5,M,0.0,M,,*64
$GNGLL,3106.37497,N,12120.77021,E,040515.000,A,E*4F
$GNGSA,A,2,,,,,,,,,,,,,25.5,25.5,25.5,1*02
$GNGSA,A,2,,,,,,,,,,,,,25.5,25.5,25.5,4*07
$GPGSV,3,1,12,02,45,136,,05,59,012,,13,85,068,,15,59,243,,0*65
$GPGSV,3,2,12,18,15,317,,20,44,063,,24,08,187,,29,42,267,,0*66
$GPGSV,3,3,12,30,23,063,,193,73,052,,194,09,153,,195,44,169,,0*58
$BDGSV,3,1,11,06,47,200,,11,57,281,,12,46,187,,13,58,338,,0*70
$BDGSV,3,2,11,21,55,023,,22,12,060,,34,60,231,,38,73,044,,0*7C
$BDGSV,3,3,11,42,49,286,,43,35,306,,44,24,170,,0*47
$GNRMC,040515.000,A,3106.37497,N,12120.77021,E,1127.72,236.19,260921,,,E,V*33
$GNVTG,236.19,T,,M,1127.72,N,2088.54,K,E*2B
$GNZDA,040515.000,26,09,2021,00,00*41
$GPTXT,01,01,01,ANTENNA OK*35
$GPTXT,01,01,02,INS_INF=3,9,0,2,0,RAM,1*6D
$GNGGA,040516.000,3106.54004,N,12121.03061,E,6,00,25.5,-18549.4,M,0.0,M,,*6D
$GNGLL,3106.54004,N,12121.03061,E,040516.000,A,E*41
$GNGSA,A,2,,,,,,,,,,,,,25.5,25.5,25.5,1*02
$GNGSA,A,2,,,,,,,,,,,,,25.5,25.5,25.5,4*07
$GPGSV,3,1,12,02,45,136,,05,59,012,,13,85,068,,15,59,243,,0*65
$GPGSV,3,2,12,18,15,317,,20,44,063,,24,08,187,,29,42,267,,0*66
$GPGSV,3,3,12,30,23,063,,193,73,052,,194,09,153,,195,44,169,,0*58
$BDGSV,3,1,11,06,47,200,,11,57,281,,12,46,187,,13,58,338,,0*70
$BDGSV,3,2,11,21,55,023,,22,12,060,,34,60,231,,38,74,044,,0*7B
$BDGSV,3,3,11,42,49,286,,43,35,306,,44,24,170,,0*47
$GNRMC,040516.000,A,3106.54004,N,12121.03061,E,1139.35,236.44,260921,,,E,V*39
$GNVTG,236.44,T,,M,1139.35,N,2110.07,K,E*29
$GNZDA,040516.000,26,09,2021,00,00*42
$GPTXT,01,01,01,ANTENNA OK*35
$GPTXT,01,01,02,INS_INF=3,9,0,2,0,RAM,1*6D
$GNGGA,040517.000,3106.71396,N,12121.31825,E,6,00,25.5,-18254.0,M,0.0,M,,*65
$GNGLL,3106.71396,N,12121.31825,E,040517.000,A,E*46
$GNGSA,A,2,,,,,,,,,,,,,25.5,25.5,25.5,1*02
$GNGSA,A,2,,,,,,,,,,,,,25.5,25.5,25.5,4*07
$GPGSV,3,1,12,02,45,136,,05,59,012,,13,85,068,,15,59,243,,0*65
$GPGSV,3,2,12,18,15,317,,20,44,063,,24,08,187,,29,42,267,,0*66
$GPGSV,3,3,12,30,23,063,,193,73,052,,194,09,153,,195,44,169,,0*58
$BDGSV,3,1,11,06,47,200,,11,57,281,,12,46,187,,13,58,338,,0*70
$BDGSV,3,2,11,21,55,023,,22,12,060,,34,60,231,,38,74,044,,0*7B
$BDGSV,3,3,11,42,49,286,,43,35,306,,44,24,170,,0*47
$GNRMC,040517.000,A,3106.71396,N,12121.31825,E,1153.15,237.21,260921,,,E,V*32
$GNVTG,237.21,T,,M,1153.15,N,2135.64,K,E*27
$GNZDA,040517.000,26,09,2021,00,00*43
$GPTXT,01,01,01,ANTENNA OK*35
$GPTXT,01,01,02,INS_INF=3,9,0,2,0,RAM,1*6D
$GNGGA,040518.000,3106.88402,N,12121.61611,E,6,00,25.5,-17945.6,M,0.0,M,,*68
$GNGLL,3106.88402,N,12121.61611,E,040518.000,A,E*49
$GNGSA,A,2,,,,,,,,,,,,,25.5,25.5,25.5,1*02
$GNGSA,A,2,,,,,,,,,,,,,25.5,25.5,25.5,4*07
$GPGSV,3,1,12,02,45,136,,05,59,012,,13,85,068,,15,59,243,,0*65
$GPGSV,3,2,12,18,15,317,,20,44,063,,24,08,187,,29,42,267,,0*66
$GPGSV,3,3,12,30,23,063,,193,73,052,,194,09,153,,195,44,169,,0*58
$BDGSV,3,1,11,06,47,200,,11,57,281,,12,46,187,,13,58,338,,0*70
$BDGSV,3,2,11,21,55,023,,22,12,060,,34,60,231,,38,74,044,,0*7B
$BDGSV,3,3,11,42,49,286,,43,35,306,,44,24,170,,0*47
$GNRMC,040518.000,A,3106.88402,N,12121.61611,E,1167.11,237.97,260921,,,E,V*33
$GNVTG,237.97,T,,M,1167.11,N,2161.49,K,E*27
$GNZDA,040518.000,26,09,2021,00,00*4C
$GPTXT,01,01,01,ANTENNA OK*35
$GPTXT,01,01,02,INS_INF=3,9,0,2,0,RAM,1*6D
$GNGGA,040519.000,3107.05463,N,12121.91555,E,6,00,25.5,-17611.7,M,0.0,M,,*69
$GNGLL,3107.05463,N,12121.91555,E,040519.000,A,E*47
$GNGSA,A,2,,,,,,,,,,,,,25.5,25.5,25.5,1*02
$GNGSA,A,2,,,,,,,,,,,,,25.5,25.5,25.5,4*07
$GPGSV,3,1,12,02,45,136,,05,59,012,,13,85,068,,15,59,243,,0*65
$GPGSV,3,2,12,18,15,317,,20,43,063,,24,08,187,,29,42,267,,0*61
$GPGSV,3,3,12,30,23,063,,193,73,052,,194,09,153,,195,44,169,,0*58
$BDGSV,3,1,11,06,47,200,,11,57,281,,12,46,187,,13,58,338,,0*70
$BDGSV,3,2,11,21,55,023,,22,12,060,,34,60,231,,38,74,044,,0*7B
$BDGSV,3,3,11,42,49,286,,43,35,306,,44,24,170,,0*47
$GNRMC,040519.000,A,3107.05463,N,12121.91555,E,1180.44,238.87,260921,,,E,V*3A
$GNVTG,238.87,T,,M,1180.44,N,2186.18,K,E*2D
$GNZDA,040519.000,26,09,2021,00,00*4D
$GPTXT,01,01,01,ANTENNA OK*35
$GPTXT,01,01,02,INS_INF=3,9,0,2,0,RAM,1*6D
$GNGGA,040520.000,3107.22335,N,12122.23346,E,6,00,25.5,-17275.0,M,0.0,M,,*6D
$GNGLL,3107.22335,N,12122.23346,E,040520.000,A,E*42
$GNGSA,A,2,,,,,,,,,,,,,25.5,25.5,25.5,1*02
$GNGSA,A,2,,,,,,,,,,,,,25.5,25.5,25.5,4*07
$GPGSV,3,1,12,02,45,136,,05,59,012,,13,85,068,,15,59,243,,0*65
$GPGSV,3,2,12,18,15,317,,20,43,063,,24,08,187,,29,42,267,,0*61
$GPGSV,3,3,12,30,23,063,,193,73,052,,194,09,153,,195,44,169,,0*58
$BDGSV,3,1,11,06,47,200,,11,57,281,,12,46,187,,13,58,338,,0*70
$BDGSV,3,2,11,21,55,023,,22,12,060,,34,60,231,,38,74,044,,0*7B
$BDGSV,3,3,11,42,49,286,,43,35,306,,44,24,170,,0*47
$GNRMC,040520.000,A,3107.22335,N,12122.23346,E,1195.36,239.78,260921,,,E,V*3F
$GNVTG,239.78,T,,M,1195.36,N,2213.81,K,E*22
$GNZDA,040520.000,26,09,2021,00,00*47
$GPTXT,01,01,01,ANTENNA OK*35
$GPTXT,01,01,02,INS_INF=3,9,0,2,0,RAM,1*6D
$GNGGA,040521.000,3107.38633,N,12122.57169,E,6,00,25.5,-16930.6,M,0.0,M,,*65
$GNGLL,3107.38633,N,12122.57169,E,040521.000,A,E*47
$GNGSA,A,2,,,,,,,,,,,,,25.5,25.5,25.5,1*02
$GNGSA,A,2,,,,,,,,,,,,,25.5,25.5,25.5,4*07
$GPGSV,3,1,12,02,45,136,,05,59,012,,13,85,068,,15,59,243,,0*65
$GPGSV,3,2,12,18,15,317,,20,43,063,,24,08,187,,29,42,267,,0*61
$GPGSV,3,3,12,30,23,063,,193,73,052,,194,09,153,,195,44,169,,0*58
$BDGSV,3,1,11,06,47,200,,11,57,281,,12,46,187,,13,58,338,,0*70
$BDGSV,3,2,11,21,55,024,,22,12,060,,34,60,231,,38,74,044,,0*7C
$BDGSV,3,3,11,42,49,286,,43,35,306,,44,24,170,,0*47
$GNRMC,040521.000,A,3107.38633,N,12122.57169,E,1211.06,240.91,260921,,,E,V*3F
$GNVTG,240.91,T,,M,1211.06,N,2242.88,K,E*2A
$GNZDA,040521.000,26,09,2021,00,00*46
$GPTXT,01,01,01,ANTENNA OK*35
$GPTXT,01,01,02,INS_INF=3,9,0,2,0,RAM,1*6D
$GNGGA,040522.000,3107.54583,N,12122.90889,E,6,00,25.5,-16571.1,M,0.0,M,,*66
$GNGLL,3107.54583,N,12122.90889,E,040522.000,A,E*4A
$GNGSA,A,2,,,,,,,,,,,,,25.5,25.5,25.5,1*02
$GNGSA,A,2,,,,,,,,,,,,,25.5,25.5,25.5,4*07
$GPGSV,3,1,12,02,45,136,,05,59,012,,13,85,068,,15,59,243,,0*65
$GPGSV,3,2,12,18,15,317,,20,43,063,,24,08,187,,29,42,267,,0*61
$GPGSV,3,3,12,30,23,062,,193,73,052,,194,09,153,,195,44,169,,0*59
$BDGSV,3,1,11,06,47,200,,11,57,281,,12,46,187,,13,58,338,,0*70
$BDGSV,3,2,11,21,55,024,,22,12,060,,34,60,231,,38,74,044,,0*7C
$BDGSV,3,3,11,42,49,286,,43,35,305,,44,24,170,,0*44
$GNRMC,040522.000,A,3107.54583,N,12122.90889,E,1225.68,241.88,260921,,,E,V*34
$GNVTG,241.88,T,,M,1225.68,N,2269.96,K,E*2A
$GNZDA,040522.000,26,09,2021,00,00*45
$GPTXT,01,01,01,ANTENNA OK*35
$GPTXT,01,01,02,INS_INF=3,9,0,2,0,RAM,1*6D
$GNGGA,040523.000,3107.70224,N,12123.22517,E,6,00,25.5,-16166.3,M,0.0,M,,*69
$GNGLL,3107.70224,N,12123.22517,E,040523.000,A,E*45
$GNGSA,A,2,,,,,,,,,,,,,25.5,25.5,25.5,1*02
$GNGSA,A,2,,,,,,,,,,,,,25.5,25.5,25.5,4*07
$GPGSV,3,1,12,02,45,136,,05,59,012,,13,85,068,,15,59,243,,0*65
$GPGSV,3,2,12,18,15,317,,20,43,063,,24,08,187,,29,42,267,,0*61
$GPGSV,3,3,12,30,23,062,,193,73,052,,194,09,153,,195,44,169,,0*59
$BDGSV,3,1,11,06,47,200,,11,57,281,,12,46,187,,13,58,338,,0*70
$BDGSV,3,2,11,21,55,024,,22,12,060,,34,60,231,,38,74,044,,0*7C
$BDGSV,3,3,11,42,49,286,,43,35,305,,44,24,170,,0*44
$GNRMC,040523.000,A,3107.70224,N,12123.22517,E,1236.44,242.75,260921,,,E,V*36
$GNVTG,242.75,T,,M,1236.44,N,2289.88,K,E*26
$GNZDA,040523.000,26,09,2021,00,00*44
$GPTXT,01,01,01,ANTENNA OK*35
$GPTXT,01,01,02,INS_INF=3,9,0,2,0,RAM,1*6D
$GNGGA,040524.000,3107.84636,N,12123.46480,E,6,00,25.5,-15638.4,M,0.0,M,,*67
$GNGLL,3107.84636,N,12123.46480,E,040524.000,A,E*43
$GNGSA,A,2,,,,,,,,,,,,,25.5,25.5,25.5,1*02
$GNGSA,A,2,,,,,,,,,,,,,25.5,25.5,25.5,4*07
$GPGSV,3,1,12,02,45,136,,05,59,012,,13,85,067,,15,59,243,,0*6A
$GPGSV,3,2,12,18,15,317,,20,43,063,,24,08,187,,29,42,267,,0*61
$GPGSV,3,3,12,30,23,062,,193,73,052,,194,09,153,,195,44,169,,0*59
$BDGSV,3,1,11,06,47,200,,11,57,281,,12,46,187,,13,58,338,,0*70
$BDGSV,3,2,11,21,55,024,,22,12,060,,34,60,231,,38,74,044,,0*7C
$BDGSV,3,3,11,42,49,287,,43,35,305,,44,24,170,,0*45
$GNRMC,040524.000,A,3107.84636,N,12123.46480,E,1235.26,243.02,260921,,,E,V*36
$GNVTG,243.02,T,,M,1235.26,N,2287.70,K,E*29
$GNZDA,040524.000,26,09,2021,00,00*43
$GPTXT,01,01,01,ANTENNA OK*35
$GPTXT,01,01,02,INS_INF=3,9,0,2,0,RAM,1*6D
$GNGGA,040525.000,3107.85843,N,12123.33587,E,6,00,25.5,-14399.4,M,0.0,M,,*60
$GNGLL,3107.85843,N,12123.33587,E,040525.000,A,E*4B
$GNGSA,A,2,,,,,,,,,,,,,25.5,25.5,25.5,1*02
$GNGSA,A,2,,,,,,,,,,,,,25.5,25.5,25.5,4*07
$GPGSV,3,1,12,02,45,136,,05,59,012,,13,85,067,,15,59,243,,0*6A
$GPGSV,3,2,12,18,15,317,,20,43,063,,24,08,187,,29,42,267,,0*61
$GPGSV,3,3,12,30,23,062,,193,73,052,,194,09,153,,195,44,169,,0*59
$BDGSV,3,1,11,06,47,200,,11,57,281,,12,46,187,,13,58,338,,0*70
$BDGSV,3,2,11,21,55,024,,22,12,060,,34,60,231,,38,74,044,,0*7C
$BDGSV,3,3,11,42,49,287,,43,35,305,,44,24,170,,0*45
$GNRMC,040525.000,A,3107.85843,N,12123.33587,E,1165.00,242.60,260921,,,E,V*39
$GNVTG,242.60,T,,M,1165.00,N,2157.58,K,E*2A
$GNZDA,040525.000,26,09,2021,00,00*42
$GPTXT,01,01,01,ANTENNA OK*35
$GPTXT,01,01,02,INS_INF=3,9,0,2,0,RAM,1*6D
$GNGGA,040526.000,3107.59682,N,12123.23592,E,6,00,25.5,-12960.2,M,0.0,M,,*68
$GNGLL,3107.59682,N,12123.23592,E,040526.000,A,E*4F
$GNGSA,A,2,,,,,,,,,,,,,25.5,25.5,25.5,1*02
$GNGSA,A,2,,,,,,,,,,,,,25.5,25.5,25.5,4*07
$GPGSV,3,1,12,02,45,136,,05,59,012,,13,85,067,,15,59,243,,0*6A
$GPGSV,3,2,12,18,15,317,,20,43,063,,24,08,186,,29,42,267,,0*60
$GPGSV,3,3,12,30,23,062,,193,73,052,,194,09,153,,195,44,169,,0*59
$BDGSV,3,1,11,06,47,200,,11,57,281,,12,46,187,,13,58,338,,0*70
$BDGSV,3,2,11,21,55,024,,22,12,060,,34,60,231,,38,74,044,,0*7C
$BDGSV,3,3,11,42,49,287,,43,35,305,,44,24,170,,0*45
$GNRMC,040526.000,A,3107.59682,N,12123.23592,E,1068.37,245.62,260921,,,E,V*30
$GNVTG,245.62,T,,M,1068.37,N,1978.61,K,E*2B
$GNZDA,040526.000,26,09,2021,00,00*41
$GPTXT,01,01,01,ANTENNA OK*35
$GPTXT,01,01,02,INS_INF=3,9,0,2,0,RAM,1*6D
$GNGGA,040527.000,3107.34872,N,12123.61853,E,6,00,25.5,-12213.1,M,0.0,M,,*69
$GNGLL,3107.34872,N,12123.61853,E,040527.000,A,E*42
$GNGSA,A,2,,,,,,,,,,,,,25.5,25.5,25.5,1*02
$GNGSA,A,2,,,,,,,,,,,,,25.5,25.5,25.5,4*07
$GPGSV,3,1,12,02,45,136,,05,59,012,,13,85,067,,15,59,243,,0*6A
$GPGSV,3,2,12,18,15,317,,20,43,063,,24,08,186,,29,42,267,,0*60
$GPGSV,3,3,12,30,23,062,,193,73,052,,194,09,153,,195,44,169,,0*59
$BDGSV,3,1,11,06,47,200,,11,57,281,,12,46,187,,13,58,338,,0*70
$BDGSV,3,2,11,21,55,024,,22,12,060,,34,60,231,,38,74,044,,0*7C
$BDGSV,3,3,11,42,49,287,,43,35,305,,44,24,170,,0*45
$GNRMC,040527.000,A,3107.34872,N,12123.61853,E,1036.12,249.55,260921,,,E,V*39
$GNVTG,249.55,T,,M,1036.12,N,1918.89,K,E*2F
$GNZDA,040527.000,26,09,2021,00,00*40
$GPTXT,01,01,01,ANTENNA OK*35
$GPTXT,01,01,02,INS_INF=3,9,0,2,0,RAM,1*6D
$GNGGA,040528.000,3107.44518,N,12124.08405,E,6,00,25.5,-11842.9,M,0.0,M,,*62
$GNGLL,3107.44518,N,12124.08405,E,040528.000,A,E*4C
$GNGSA,A,2,,,,,,,,,,,,,25.5,25.5,25.5,1*02
$GNGSA,A,2,,,,,,,,,,,,,25.5,25.5,25.5,4*07
$GPGSV,3,1,12,02,45,136,,05,59,012,,13,85,067,,15,59,243,,0*6A
$GPGSV,3,2,12,18,15,317,,20,43,063,,24,08,186,,29,42,267,,0*60
$GPGSV,3,3,12,30,23,062,,193,73,052,,194,09,153,,195,44,169,,0*59
$BDGSV,3,1,11,06,47,200,,11,57,281,,12,46,187,,13,58,338,,0*70
$BDGSV,3,2,11,21,55,024,,22,12,060,,34,60,231,,38,74,044,,0*7C
$BDGSV,3,3,11,42,49,287,,43,35,305,,44,24,170,,0*45
$GNRMC,040528.000,A,3107.44518,N,12124.08405,E,1048.81,250.31,260921,,,E,V*3E
$GNVTG,250.31,T,,M,1048.81,N,1942.40,K,E*2C
$GNZDA,040528.000,26,09,2021,00,00*4F
$GPTXT,01,01,01,ANTENNA OK*35
$GPTXT,01,01,02,INS_INF=3,9,0,2,0,RAM,1*6D
$GNGGA,040529.000,3107.55453,N,12124.40428,E,6,00,25.5,-11327.3,M,0.0,M,,*6C
$GNGLL,3107.55453,N,12124.40428,E,040529.000,A,E*40
$GNGSA,A,2,,,,,,,,,,,,,25.5,25.5,25.5,1*02
$GNGSA,A,2,,,,,,,,,,,,,25.5,25.5,25.5,4*07
$GPGSV,3,1,12,02,45,136,,05,59,012,,13,85,067,,15,59,243,,0*6A
$GPGSV,3,2,12,18,15,317,,20,43,063,,24,08,186,,29,42,267,,0*60
$GPGSV,3,3,12,30,23,062,,193,73,052,,194,09,153,,195,44,169,,0*59
$BDGSV,3,1,11,06,47,200,,11,57,281,,12,46,187,,13,58,338,,0*70
$BDGSV,3,2,11,21,55,024,,22,12,060,,34,60,231,,38,74,044,,0*7C
$BDGSV,3,3,11,42,49,287,,43,35,305,,44,24,170,,0*45
$GNRMC,040529.000,A,3107.55453,N,12124.40428,E,1063.90,251.55,260921,,,E,V*38
$GNVTG,251.55,T,,M,1063.90,N,1970.34,K,E*24
$GNZDA,040529.000,26,09,2021,00,00*4E
$GPTXT,01,01,01,ANTENNA OK*35
$GPTXT,01,01,02,INS_INF=3,9,0,2,0,RAM,1*6D
$GNGGA,040530.000,3107.48975,N,12124.38405,E,6,00,25.5,-10393.6,M,0.0,M,,*6A
$GNGLL,3107.48975,N,12124.38405,E,040530.000,A,E*4D
$GNGSA,A,2,,,,,,,,,,,,,25.5,25.5,25.5,1*02
$GNGSA,A,2,,,,,,,,,,,,,25.5,25.5,25.5,4*07
$GPGSV,3,1,12,02,45,136,,05,59,012,,13,85,067,,15,59,243,,0*6A
$GPGSV,3,2,12,18,15,317,,20,43,063,,24,08,186,,29,42,267,,0*60
$GPGSV,3,3,12,30,23,062,,193,73,052,,194,09,153,,195,44,169,,0*59
$BDGSV,3,1,11,06,47,200,,11,57,281,,12,46,187,,13,58,338,,0*70
$BDGSV,3,2,11,21,55,024,,22,12,060,,34,60,231,,38,74,044,,0*7C
$BDGSV,3,3,11,42,49,287,,43,35,305,,44,24,170,,0*45
$GNRMC,040530.000,A,3107.48975,N,12124.38405,E,1042.31,253.47,260921,,,E,V*3C
$GNVTG,253.47,T,,M,1042.31,N,1930.35,K,E*28
$GNZDA,040530.000,26,09,2021,00,00*46
$GPTXT,01,01,01,ANTENNA OK*35
$GPTXT,01,01,02,INS_INF=3,9,0,2,0,RAM,1*6D
$GNGGA,040531.000,3104.90991,N,12128.16959,E,6,00,25.5,-13428.2,M,0.0,M,,*63
$GNGLL,3104.90991,N,12128.16959,E,040531.000,A,E*44
$GNGSA,A,2,,,,,,,,,,,,,25.5,25.5,25.5,1*02
$GNGSA,A,2,,,,,,,,,,,,,25.5,25.5,25.5,4*07
$GPGSV,3,1,12,02,45,136,,05,59,012,,13,85,067,,15,59,243,,0*6A
$GPGSV,3,2,12,18,15,317,,20,43,063,,24,08,186,,29,42,267,,0*60
$GPGSV,3,3,12,30,23,062,,193,73,052,,194,09,153,,195,44,169,,0*59
$BDGSV,3,1,11,06,47,200,,11,57,281,,12,46,187,,13,58,338,,0*70
$BDGSV,3,2,11,21,55,024,,22,12,060,,34,60,231,,38,74,044,,0*7C
$BDGSV,3,3,11,42,49,287,,43,35,305,,44,24,170,,0*45
$GNRMC,040531.000,A,3104.90991,N,12128.16959,E,1605.47,286.24,260921,,,E,V*3C
$GNVTG,286.24,T,,M,1605.47,N,2973.33,K,E*23
$GNZDA,040531.000,26,09,2021,00,00*47
$GPTXT,01,01,01,ANTENNA OK*35
$GPTXT,01,01,02,INS_INF=3,9,0,2,0,RAM,1*6D
$GNGGA,040532.000,3104.98422,N,12128.22441,E,6,00,25.5,-12629.9,M,0.0,M,,*67
$GNGLL,3104.98422,N,12128.22441,E,040532.000,A,E*49
$GNGSA,A,2,,,,,,,,,,,,,25.5,25.5,25.5,1*02
$GNGSA,A,2,,,,,,,,,,,,,25.5,25.5,25.5,4*07
$GPGSV,3,1,12,02,45,136,,05,59,012,,13,85,067,,15,59,243,,0*6A
$GPGSV,3,2,12,18,15,317,,20,43,063,,24,08,186,,29,42,267,,0*60
$GPGSV,3,3,12,30,23,062,,193,73,052,,194,09,153,,195,44,169,,0*59
$BDGSV,3,1,11,06,47,200,,11,57,281,,12,46,187,,13,58,338,,0*70
$BDGSV,3,2,11,21,55,024,,22,12,060,,34,60,231,,38,74,044,,0*7C
$BDGSV,3,3,11,42,49,287,,43,35,305,,44,24,170,,0*45
$GNRMC,040532.000,A,3104.98422,N,12128.22441,E,1573.93,286.09,260921,,,E,V*35
$GNVTG,286.09,T,,M,1573.93,N,2914.91,K,E*2E
$GNZDA,040532.000,26,09,2021,00,00*44
$GPTXT,01,01,01,ANTENNA OK*35
$GPTXT,01,01,02,INS_INF=3,9,0,2,0,RAM,1*6D
$GNGGA,040533.000,3104.86279,N,12128.70589,E,6,00,25.5,-12335.9,M,0.0,M,,*6B
$GNGLL,3104.86279,N,12128.70589,E,040533.000,A,E*4D
$GNGSA,A,2,,,,,,,,,,,,,25.5,25.5,25.5,1*02
$GNGSA,A,2,,,,,,,,,,,,,25.5,25.5,25.5,4*07
$GPGSV,3,1,12,02,45,136,,05,59,012,,13,85,067,,15,59,243,,0*6A
$GPGSV,3,2,12,18,15,317,,20,43,063,,24,08,186,,29,42,267,,0*60
$GPGSV,3,3,12,30,23,062,,193,73,052,,194,09,153,,195,44,169,,0*59
$BDGSV,3,1,11,06,47,200,,11,57,281,,12,46,187,,13,58,338,,0*70
$BDGSV,3,2,11,21,55,024,,22,12,060,,34,60,231,,38,74,044,,0*7C
$BDGSV,3,3,11,42,49,287,,43,35,305,,44,24,170,,0*45
$GNRMC,040533.000,A,3104.86279,N,12128.70589,E,1602.66,287.43,260921,,,E,V*31
$GNVTG,287.43,T,,M,1602.66,N,2968.12,K,E*2E
$GNZDA,040533.000,26,09,2021,00,00*45
$GPTXT,01,01,01,ANTENNA OK*35
$GPTXT,01,01,02,INS_INF=3,9,0,2,0,RAM,1*6D
$GNGGA,040534.000,3104.73362,N,12129.19370,E,6,00,25.5,-12054.6,M,0.0,M,,*68
$GNGLL,3104.73362,N,12129.19370,E,040534.000,A,E*45
$GNGSA,A,2,,,,,,,,,,,,,25.5,25.5,25.5,1*02
$GNGSA,A,2,,,,,,,,,,,,,25.5,25.5,25.5,4*07
$GPGSV,3,1,12,02,45,136,,05,59,012,,13,85,067,,15,59,243,,0*6A
$GPGSV,3,2,12,18,15,317,,20,43,063,,24,08,186,,29,42,267,,0*60
$GPGSV,3,3,12,30,23,062,,193,73,052,,194,09,153,,195,44,169,,0*59
$BDGSV,3,1,11,06,47,200,,11,57,281,,12,46,187,,13,58,338,,0*70
$BDGSV,3,2,11,21,55,024,,22,12,060,,34,60,231,,38,74,044,,0*7C
$BDGSV,3,3,11,42,49,287,,43,35,305,,44,24,170,,0*45
$GNRMC,040534.000,A,3104.73362,N,12129.19370,E,1631.99,288.70,260921,,,E,V*36
$GNVTG,288.70,T,,M,1631.99,N,3022.44,K,E*24
$GNZDA,040534.000,26,09,2021,00,00*42
$GPTXT,01,01,01,ANTENNA OK*35
$GPTXT,01,01,02,INS_INF=3,9,0,2,0,RAM,1*6D
$GNGGA,040535.000,3104.60149,N,12129.67939,E,6,00,25.5,-11772.5,M,0.0,M,,*6D
$GNGLL,3104.60149,N,12129.67939,E,040535.000,A,E*43
$GNGSA,A,2,,,,,,,,,,,,,25.5,25.5,25.5,1*02
$GNGSA,A,2,,,,,,,,,,,,,25.5,25.5,25.5,4*07
$GPGSV,3,1,12,02,45,136,,05,59,012,,13,85,067,,15,59,243,,0*6A
$GPGSV,3,2,12,18,15,317,,20,43,063,,24,08,186,,29,42,267,,0*60
$GPGSV,3,3,12,30,23,062,,193,73,052,,194,09,153,,195,44,169,,0*59
$BDGSV,3,1,11,06,47,200,,11,57,281,,12,46,186,,13,58,338,,0*71
$BDGSV,3,2,11,21,55,024,,22,12,060,,34,60,231,,38,74,044,,0*7C
$BDGSV,3,3,11,42,49,287,,43,35,305,,44,24,170,,0*45
$GNRMC,040535.000,A,3104.60149,N,12129.67939,E,1660.39,289.78,260921,,,E,V*37
$GNVTG,289.78,T,,M,1660.39,N,3075.04,K,E*25
$GNZDA,040535.000,26,09,2021,00,00*43
$GPTXT,01,01,01,ANTENNA OK*35
$GPTXT,01,01,02,INS_INF=3,9,0,2,0,RAM,1*6D
$GNGGA,040536.000,3104.45264,N,12130.17698,E,6,00,25.5,-11518.6,M,0.0,M,,*63
$GNGLL,3104.45264,N,12130.17698,E,040536.000,A,E*40
$GNGSA,A,2,,,,,,,,,,,,,25.5,25.5,25.5,1*02
$GNGSA,A,2,,,,,,,,,,,,,25.5,25.5,25.5,4*07
$GPGSV,3,1,12,02,45,136,,05,59,013,,13,85,067,,15,59,243,,0*6B
$GPGSV,3,2,12,18,15,317,,20,43,063,,24,08,186,,29,42,267,,0*60
$GPGSV,3,3,12,30,23,062,,193,73,052,,194,09,153,,195,44,169,,0*59
$BDGSV,3,1,11,06,47,200,,11,57,281,,12,46,186,,13,58,338,,0*71
$BDGSV,3,2,11,21,55,024,,22,12,060,,34,60,231,,38,74,044,,0*7C
$BDGSV,3,3,11,42,49,287,,43,35,305,,44,24,170,,0*45
$GNRMC,040536.000,A,3104.45264,N,12130.17698,E,1690.11,291.10,260921,,,E,V*36
$GNVTG,291.10,T,,M,1690.11,N,3130.08,K,E*2B
$GNZDA,040536.000,26,09,2021,00,00*40
$GPTXT,01,01,01,ANTENNA OK*35
$GPTXT,01,01,02,INS_INF=3,9,0,2,0,RAM,1*6D
$GNGGA,040537.000,3104.28989,N,12130.67644,E,6,00,25.5,-11273.2,M,0.0,M,,*69
$GNGLL,3104.28989,N,12130.67644,E,040537.000,A,E*44
$GNGSA,A,2,,,,,,,,,,,,,25.5,25.5,25.5,1*02
$GNGSA,A,2,,,,,,,,,,,,,25.5,25.5,25.5,4*07
$GPGSV,3,1,12,02,45,136,,05,59,013,,13,85,066,,15,59,243,,0*6A
$GPGSV,3,2,12,18,15,317,,20,43,063,,24,08,186,,29,42,267,,0*60
$GPGSV,3,3,12,30,23,062,,193,73,052,,194,09,153,,195,44,169,,0*59
$BDGSV,3,1,11,06,47,200,,11,57,281,,12,46,186,,13,58,338,,0*71
$BDGSV,3,2,11,21,55,024,,22,12,060,,34,60,231,,38,74,044,,0*7C
$BDGSV,3,3,11,42,49,287,,43,35,305,,44,24,170,,0*45
$GNRMC,040537.000,A,3104.28989,N,12130.67644,E,1719.97,292.33,260921,,,E,V*3E
$GNVTG,292.33,T,,M,1719.97,N,3185.38,K,E*2A
$GNZDA,040537.000,26,09,2021,00,00*41
$GPTXT,01,01,01,ANTENNA OK*35
$GPTXT,01,01,02,INS_INF=3,9,0,2,0,RAM,1*6D
$GNGGA,040538.000,3104.11101,N,12131.17918,E,6,00,25.5,-11038.2,M,0.0,M,,*69
$GNGLL,3104.11101,N,12131.17918,E,040538.000,A,E*49
$GNGSA,A,2,,,,,,,,,,,,,25.5,25.5,25.5,1*02
$GNGSA,A,2,,,,,,,,,,,,,25.5,25.5,25.5,4*07
$GPGSV,3,1,12,02,45,136,,05,59,013,,13,85,066,,15,59,243,,0*6A
$GPGSV,3,2,12,18,15,317,,20,43,063,,24,08,186,,29,42,267,,0*60
$GPGSV,3,3,12,30,23,062,,193,73,052,,194,09,153,,195,44,169,,0*59
$BDGSV,3,1,11,06,47,200,,11,57,281,,12,46,186,,13,58,338,,0*71
$BDGSV,3,2,11,21,55,024,,22,12,060,,34,60,231,,38,74,044,,0*7C
$BDGSV,3,3,11,42,49,287,,43,35,305,,44,24,170,,0*45
$GNRMC,040538.000,A,3104.11101,N,12131.17918,E,1750.00,293.50,260921,,,E,V*34
$GNVTG,293.50,T,,M,1750.00,N,3241.00,K,E*2D
$GNZDA,040538.000,26,09,2021,00,00*4E
$GPTXT,01,01,01,ANTENNA OK*35
$GPTXT,01,01,02,INS_INF=3,9,0,2,0,RAM,1*6D
$GNGGA,040539.000,3103.92491,N,12131.67841,E,6,00,25.5,-10807.1,M,0.0,M,,*64
$GNGLL,3103.92491,N,12131.67841,E,040539.000,A,E*42
$GNGSA,A,2,,,,,,,,,,,,,25.5,25.5,25.5,1*02
$GNGSA,A,2,,,,,,,,,,,,,25.5,25.5,25.5,4*07
$GPGSV,3,1,12,02,45,136,,05,59,013,,13,85,066,,15,60,243,,0*60
$GPGSV,3,2,12,18,15,317,,20,43,063,,24,08,186,,29,42,267,,0*60
$GPGSV,3,3,12,30,23,062,,193,73,052,,194,09,153,,195,44,169,,0*59
$BDGSV,3,1,11,06,47,200,,11,57,281,,12,46,186,,13,58,338,,0*71
$BDGSV,3,2,11,21,55,024,,22,12,060,,34,60,231,,38,74,044,,0*7C
$BDGSV,3,3,11,42,49,287,,43,35,305,,44,24,170,,0*45
$GNRMC,040539.000,A,3103.92491,N,12131.67841,E,1778.99,294.67,260921,,,E,V*36
$GNVTG,294.67,T,,M,1778.99,N,3294.69,K,E*23
$GNZDA,040539.000,26,09,2021,00,00*4F
$GPTXT,01,01,01,ANTENNA OK*35
$GPTXT,01,01,02,INS_INF=3,9,0,2,0,RAM,1*6D
$GNGGA,040540.000,3103.72516,N,12132.17493,E,6,00,25.5,-10570.9,M,0.0,M,,*68
$GNGLL,3103.72516,N,12132.17493,E,040540.000,A,E*4B
$GNGSA,A,2,,,,,,,,,,,,,25.5,25.5,25.5,1*02
$GNGSA,A,2,,,,,,,,,,,,,25.5,25.5,25.5,4*07
$GPGSV,3,1,12,02,45,136,,05,59,013,,13,85,066,,15,60,243,,0*60
$GPGSV,3,2,12,18,15,317,,20,43,064,,24,08,186,,29,42,267,,0*67
$GPGSV,3,3,12,30,23,062,,193,73,052,,194,09,153,,195,44,169,,0*59
$BDGSV,3,1,11,06,47,200,,11,57,281,,12,46,186,,13,58,338,,0*71
$BDGSV,3,2,11,21,55,024,,22,12,060,,34,60,231,,38,74,044,,0*7C
$BDGSV,3,3,11,42,49,287,,43,35,305,,44,24,170,,0*45
$GNRMC,040540.000,A,3103.72516,N,12132.17493,E,1806.47,295.78,260921,,,E,V*35
$GNVTG,295.78,T,,M,1806.47,N,3345.59,K,E*27
$GNZDA,040540.000,26,09,2021,00,00*41
$GPTXT,01,01,01,ANTENNA OK*35
$GPTXT,01,01,02,INS_INF=3,9,0,2,0,RAM,1*6D
$GNGGA,040541.000,3103.50955,N,12132.68660,E,6,00,25.5,-10359.7,M,0.0,M,,*67
$GNGLL,3103.50955,N,12132.68660,E,040541.000,A,E*47
$GNGSA,A,2,,,,,,,,,,,,,25.5,25.5,25.5,1*02
$GNGSA,A,2,,,,,,,,,,,,,25.5,25.5,25.5,4*07
$GPGSV,3,1,12,02,45,136,,05,59,013,,13,85,066,,15,60,243,,0*60
$GPGSV,3,2,12,18,15,317,,20,43,064,,24,08,186,,29,42,267,,0*67
$GPGSV,3,3,12,30,23,062,,193,73,052,,194,09,153,,195,44,169,,0*59
$BDGSV,3,1,11,06,47,200,,11,57,281,,12,46,186,,13,58,338,,0*71
$BDGSV,3,2,11,21,55,024,,22,12,060,,34,60,231,,38,74,044,,0*7C
$BDGSV,3,3,11,42,49,287,,43,35,305,,44,24,170,,0*45
$GNRMC,040541.000,A,3103.50955,N,12132.68660,E,1834.49,296.83,260921,,,E,V*31
$GNVTG,296.83,T,,M,1834.49,N,3397.48,K,E*20
$GNZDA,040541.000,26,09,2021,00,00*40
$GPTXT,01,01,01,ANTENNA OK*35
$GPTXT,01,01,02,INS_INF=3,9,0,2,0,RAM,1*6D
$GNGGA,040542.000,3103.27460,N,12133.22932,E,6,00,25.5,-10211.7,M,0.0,M,,*65
$GNGLL,3103.27460,N,12133.22932,E,040542.000,A,E*48
$GNGSA,A,2,,,,,,,,,,,,,25.5,25.5,25.5,1*02
$GNGSA,A,2,,,,,,,,,,,,,25.5,25.5,25.5,4*07
$GPGSV,3,1,12,02,45,136,,05,59,013,,13,85,066,,15,60,243,,0*60
$GPGSV,3,2,12,18,15,317,,20,43,064,,24,08,186,,29,42,267,,0*67
$GPGSV,3,3,12,30,23,062,,193,73,052,,194,09,153,,195,44,169,,0*59
$BDGSV,3,1,11,06,47,200,,11,57,281,,12,46,186,,13,58,338,,0*71
$BDGSV,3,2,11,21,55,024,,22,12,060,,34,60,231,,38,74,044,,0*7C
$BDGSV,3,3,11,42,49,287,,43,35,305,,44,24,170,,0*45
$GNRMC,040542.000,A,3103.27460,N,12133.22932,E,1865.68,297.75,260921,,,E,V*31
$GNVTG,297.75,T,,M,1865.68,N,3455.24,K,E*2C
$GNZDA,040542.000,26,09,2021,00,00*43
$GPTXT,01,01,01,ANTENNA OK*35
$GPTXT,01,01,02,INS_INF=3,9,0,2,0,RAM,1*6D
$GNGGA,040543.000,3103.02819,N,12133.77872,E,6,00,25.5,-10090.2,M,0.0,M,,*6A
$GNGLL,3103.02819,N,12133.77872,E,040543.000,A,E*49
$GNGSA,A,2,,,,,,,,,,,,,25.5,25.5,25.5,1*02
$GNGSA,A,2,,,,,,,,,,,,,25.5,25.5,25.5,4*07
$GPGSV,3,1,12,02,45,136,,05,59,013,,13,85,066,,15,60,243,,0*60
$GPGSV,3,2,12,18,15,317,,20,43,064,,24,08,186,,29,42,267,,0*67
$GPGSV,3,3,12,30,23,062,,193,73,052,,194,09,153,,195,44,169,,0*59
$BDGSV,3,1,11,06,47,200,,11,57,281,,12,46,186,,13,58,338,,0*71
$BDGSV,3,2,11,21,55,024,,22,12,060,,34,60,231,,38,74,044,,0*7C
$BDGSV,3,3,11,42,49,287,,43,35,305,,44,24,170,,0*45
$GNRMC,040543.000,A,3103.02819,N,12133.77872,E,1897.77,298.58,260921,,,E,V*33
$GNVTG,298.58,T,,M,1897.77,N,3514.67,K,E*2C
$GNZDA,040543.000,26,09,2021,00,00*42
$GPTXT,01,01,01,ANTENNA OK*35
$GPTXT,01,01,02,INS_INF=3,9,0,2,0,RAM,1*6D
$GNGGA,040544.000,3102.77581,N,12134.32378,E,6,00,25.5,-9978.4,M,0.0,M,,*54
$GNGLL,3102.77581,N,12134.32378,E,040544.000,A,E*46
$GNGSA,A,2,,,,,,,,,,,,,25.5,25.5,25.5,1*02
$GNGSA,A,2,,,,,,,,,,,,,25.5,25.5,25.5,4*07
$GPGSV,3,1,12,02,45,136,,05,59,013,,13,85,066,,15,60,243,,0*60
$GPGSV,3,2,12,18,15,317,,20,43,064,,24,08,186,,29,42,267,,0*67
$GPGSV,3,3,12,30,23,062,,193,73,052,,194,09,153,,195,44,169,,0*59
$BDGSV,3,1,11,06,47,201,,11,57,281,,12,46,186,,13,58,338,,0*70
$BDGSV,3,2,11,21,55,024,,22,12,060,,34,60,231,,38,74,044,,0*7C
$BDGSV,3,3,11,42,49,287,,43,35,305,,44,24,170,,0*45
$GNRMC,040544.000,A,3102.77581,N,12134.32378,E,1929.24,299.35,260921,,,E,V*34
$GNVTG,299.35,T,,M,1929.24,N,3572.96,K,E*2A
$GNZDA,040544.000,26,09,2021,00,00*45
$GPTXT,01,01,01,ANTENNA OK*35
$GPTXT,01,01,02,INS_INF=3,9,0,2,0,RAM,1*6D
$GNGGA,040545.000,3102.52371,N,12134.86862,E,6,00,25.5,-9886.5,M,0.0,M,,*55
$GNGLL,3102.52371,N,12134.86862,E,040545.000,A,E*46
$GNGSA,A,2,,,,,,,,,,,,,25.5,25.5,25.5,1*02
$GNGSA,A,2,,,,,,,,,,,,,25.5,25.5,25.5,4*07
$GPGSV,3,1,12,02,45,136,,05,59,013,,13,85,066,,15,60,243,,0*60
$GPGSV,3,2,12,18,15,317,,20,43,064,,24,08,186,,29,42,267,,0*67
$GPGSV,3,3,12,30,23,062,,193,73,052,,194,09,153,,195,44,169,,0*59
$BDGSV,3,1,11,06,47,201,,11,57,281,,12,45,186,,13,58,338,,0*73
$BDGSV,3,2,11,21,55,024,,22,12,060,,34,60,231,,38,74,044,,0*7C
$BDGSV,3,3,11,42,49,287,,43,35,305,,44,24,170,,0*45
$GNRMC,040545.000,A,3102.52371,N,12134.86862,E,1960.37,300.08,260921,,,E,V*34
$GNVTG,300.08,T,,M,1960.37,N,3630.60,K,E*26
$GNZDA,040545.000,26,09,2021,00,00*44
$GPTXT,01,01,01,ANTENNA OK*35
$GPTXT,01,01,02,INS_INF=3,9,0,2,0,RAM,1*6D
$GNGGA,040546.000,3102.25985,N,12135.41665,E,6,00,25.5,-9812.3,M,0.0,M,,*5F
$GNGLL,3102.25985,N,12135.41665,E,040546.000,A,E*47
$GNGSA,A,2,,,,,,,,,,,,,25.5,25.5,25.5,1*02
$GNGSA,A,2,,,,,,,,,,,,,25.5,25.5,25.5,4*07
$GPGSV,3,1,12,02,45,136,,05,59,013,,13,85,066,,15,60,243,,0*60
$GPGSV,3,2,12,18,15,317,,20,43,064,,24,08,186,,29,42,267,,0*67
$GPGSV,3,3,12,30,23,062,,193,73,052,,194,09,153,,195,44,169,,0*59
$BDGSV,3,1,11,06,47,201,,11,57,281,,12,45,186,,13,58,338,,0*73
$BDGSV,3,2,11,21,55,024,,22,12,060,,34,60,231,,38,74,044,,0*7C
$BDGSV,3,3,11,42,49,287,,43,35,305,,44,24,170,,0*45
$GNRMC,040546.000,A,3102.25985,N,12135.41665,E,1991.05,300.77,260921,,,E,V*32
$GNVTG,300.77,T,,M,1991.05,N,3687.42,K,E*2D
$GNZDA,040546.000,26,09,2021,00,00*47
$GPTXT,01,01,01,ANTENNA OK*35
$GPTXT,01,01,02,INS_INF=3,9,0,2,0,RAM,1*6D
$GNGGA,040547.000,3101.98729,N,12135.96221,E,6,00,25.5,-9752.0,M,0.0,M,,*55
$GNGLL,3101.98729,N,12135.96221,E,040547.000,A,E*45
$GNGSA,A,2,,,,,,,,,,,,,25.5,25.5,25.5,1*02
$GNGSA,A,2,,,,,,,,,,,,,25.5,25.5,25.5,4*07
$GPGSV,3,1,12,02,45,136,,05,59,013,,13,85,066,,15,60,243,,0*60
$GPGSV,3,2,12,18,15,317,,20,43,064,,24,08,186,,29,42,267,,0*67
$GPGSV,3,3,12,30,23,062,,193,73,052,,194,09,153,,195,44,169,,0*59
$BDGSV,3,1,11,06,47,201,,11,57,281,,12,45,186,,13,58,338,,0*73
$BDGSV,3,2,11,21,55,024,,22,12,060,,34,60,231,,38,74,044,,0*7C
$BDGSV,3,3,11,42,49,287,,43,35,305,,44,24,170,,0*45
$GNRMC,040547.000,A,3101.98729,N,12135.96221,E,2021.34,301.37,260921,,,E,V*36
$GNVTG,301.37,T,,M,2021.34,N,3743.53,K,E*22
$GNZDA,040547.000,26,09,2021,00,00*46
$GPTXT,01,01,01,ANTENNA OK*35
$GPTXT,01,01,02,INS_INF=3,9,0,2,0,RAM,1*6D
$GNGGA,040548.000,3101.70896,N,12136.50104,E,6,00,25.5,-9695.5,M,0.0,M,,*55
$GNGLL,3101.70896,N,12136.50104,E,040548.000,A,E*4A
$GNGSA,A,2,,,,,,,,,,,,,25.5,25.5,25.5,1*02
$GNGSA,A,2,,,,,,,,,,,,,25.5,25.5,25.5,4*07
$GPGSV,3,1,12,02,45,136,,05,59,013,,13,85,066,,15,60,243,,0*60
$GPGSV,3,2,12,18,15,317,,20,43,064,,24,08,186,,29,42,267,,0*67
$GPGSV,3,3,12,30,23,062,,193,73,052,,194,09,153,,195,44,169,,0*59
$BDGSV,3,1,11,06,47,201,,11,57,281,,12,45,186,,13,58,338,,0*73
$BDGSV,3,2,11,21,55,024,,22,12,060,,34,60,231,,38,74,044,,0*7C
$BDGSV,3,3,11,42,49,287,,43,35,305,,44,24,170,,0*45
$GNRMC,040548.000,A,3101.70896,N,12136.50104,E,2050.82,301.96,260921,,,E,V*39
$GNVTG,301.96,T,,M,2050.82,N,3798.13,K,E*20
$GNZDA,040548.000,26,09,2021,00,00*49
$GPTXT,01,01,01,ANTENNA OK*35
