$GPTXT,01,01,02,INS_INF=3,9,0,2,0,RAM,1*6D                                     
$GNGGA,042705.000,3110.88841,N,12131.49896,E,6,00,3.0,947.3,M,0.0,M,,*7F       
$GNGLL,3110.88841,N,12131.49896,E,042705.000,A,E*43                            
$GNGSA,A,2,,,,,,,,,,,,,4.0,3.0,2.6,1*33                                        
$GNGSA,A,2,,,,,,,,,,,,,4.0,3.0,2.6,4*36                                        
$GPGSV,4,1,13,02,34,144,,05,57,034,,13,73,032,,15,68,266,,0*69                 
$GPGSV,4,2,13,18,25,319,,20,37,077,,23,08,287,,24,18,183,,0*63                 
$GPGSV,4,3,13,29,37,252,,30,19,052,,193,71,049,,195,39,172,,0*65               
$GPGSV,4,4,13,199,53,170,,0*66                                                 
$BDGSV,4,1,13,01,46,141,,03,54,201,,08,71,009,,12,53,274,,0*76                 
$BDGSV,4,2,13,13,62,338,,16,57,207,,19,12,065,,21,47,293,,0*7E                 
$BDGSV,4,3,13,22,54,026,,35,19,174,,38,77,061,,39,68,211,,0*72                 
$BDGSV,4,4,13,44,53,227,,0*47                                                  
$GNRMC,042705.000,A,3110.88841,N,12131.49896,E,25.62,74.90,270921,,,E,V*08     
$GNVTG,74.90,T,,M,25.62,N,47.44,K,E*1D                                         
$GNZDA,042705.000,27,09,2021,00,00*41                                          
$GPTXT,01,01,01,ANTENNA OPEN*25                                                
$GPTXT,01,01,02,INS_INF=3,9,0,2,0,RAM,1*6D                                     
$GNGGA,042706.000,3110.88321,N,12131.49335,E,6,00,3.0,944.7,M,0.0,M,,*74       
$GNGLL,3110.88321,N,12131.49335,E,042706.000,A,E*4F                            
$GNGSA,A,2,,,,,,,,,,,,,4.0,3.0,2.6,1*33                                        
$GNGSA,A,2,,,,,,,,,,,,,4.0,3.0,2.6,4*36                                        
$GPGSV,4,1,13,02,34,144,,05,57,034,,13,73,032,,15,68,266,,0*69                 
$GPGSV,4,2,13,18,25,319,,20,37,077,,23,08,287,,24,18,183,,0*63                 
$GPGSV,4,3,13,29,37,252,,30,19,052,,193,71,049,,195,39,172,,0*65               
$GPGSV,4,4,13,199,53,170,,0*66                                                 
$BDGSV,4,1,13,01,46,141,,03,54,201,,08,71,009,,12,53,274,,0*76                 
$BDGSV,4,2,13,13,62,338,,16,57,207,,19,12,065,,21,47,293,,0*7E                 
$BDGSV,4,3,13,22,54,026,,35,19,174,,38,77,061,,39,68,211,,0*72                 
$BDGSV,4,4,13,44,53,227,,0*47                                                  
$GNRMC,042706.000,A,3110.88321,N,12131.49335,E,26.90,75.85,270921,,,E,V*0F     
$GNVTG,75.85,T,,M,26.90,N,49.82,K,E*12                                         
$GNZDA,042706.000,27,09,2021,00,00*42                                          
$GPTXT,01,01,01,ANTENNA OPEN*25                                                
$GPTXT,01,01,02,INS_INF=3,9,0,2,0,RAM,1*6D                                     
$GNGGA,042707.000,3110.87944,N,12131.48777,E,6,00,3.0,942.2,M,0.0,M,,*73       
$GNGLL,3110.87944,N,12131.48777,E,042707.000,A,E*4B                            
$GNGSA,A,2,,,,,,,,,,,,,4.0,3.0,2.6,1*33                                        
$GNGSA,A,2,,,,,,,,,,,,,4.0,3.0,2.6,4*36                                        
$GPGSV,4,1,13,02,34,144,,05,57,034,,13,73,032,,15,68,266,,0*69                 
$GPGSV,4,2,13,18,25,319,,20,37,077,,23,08,287,,24,18,183,,0*63                 
$GPGSV,4,3,13,29,37,252,,30,19,052,,193,71,049,,195,39,172,,0*65               
$GPGSV,4,4,13,199,53,170,,0*66                                                 
$BDGSV,4,1,13,01,46,141,,03,54,201,,08,71,009,,12,53,274,,0*76                 
$BDGSV,4,2,13,13,62,338,,16,57,207,,19,12,065,,21,47,293,,0*7E                 
$BDGSV,4,3,13,22,54,026,,35,19,174,,38,77,061,,39,68,211,,0*72                 
$BDGSV,4,4,13,44,53,227,,0*47                                                  
$GNRMC,042707.000,A,3110.87944,N,12131.48777,E,28.40,76.56,270921,,,E,V*05     
$GNVTG,76.56,T,,M,28.40,N,52.60,K,E*1A                                         
$GNZDA,042707.000,27,09,2021,00,00*43                                          
$GPTXT,01,01,01,ANTENNA OPEN*25                                                
$GPTXT,01,01,02,INS_INF=3,9,0,2,0,RAM,1*6D                                     
$GNGGA,042708.000,3110.87661,N,12131.48149,E,6,00,3.0,939.8,M,0.0,M,,*79       
$GNGLL,3110.87661,N,12131.48149,E,042708.000,A,E*47                            
$GNGSA,A,2,,,,,,,,,,,,,4.0,3.0,2.6,1*33                                        
$GNGSA,A,2,,,,,,,,,,,,,4.0,3.0,2.6,4*36                                        
$GPGSV,4,1,13,02,34,144,,05,57,034,,13,73,032,,15,68,266,,0*69                 
$GPGSV,4,2,13,18,25,319,,20,37,077,,23,08,287,,24,18,183,,0*63                 
$GPGSV,4,3,13,29,37,252,16,30,19,052,,193,71,049,,195,39,172,,0*62             
$GPGSV,4,4,13,199,53,170,,0*66                                                 
$BDGSV,4,1,13,01,46,141,,03,54,201,,08,71,009,,12,53,274,,0*76                 
$BDGSV,4,2,13,13,62,338,,16,57,207,,19,12,065,,21,47,293,,0*7E                 
$BDGSV,4,3,13,22,54,026,,35,19,174,,38,77,061,,39,68,211,,0*72                 
$BDGSV,4,4,13,44,53,227,,0*47                                                  
$GNRMC,042708.000,A,3110.87661,N,12131.48149,E,31.21,79.68,270921,,,E,V*04     
$GNVTG,79.68,T,,M,31.21,N,57.81,K,E*1D                                         
$GNZDA,042708.000,27,09,2021,00,00*4C                                          
$GPTXT,01,01,01,ANTENNA OPEN*25                                                
$GPTXT,01,01,02,INS_INF=3,9,0,2,0,RAM,1*6D                                     
$GNGGA,042709.000,3110.87461,N,12131.47467,E,6,00,3.0,937.4,M,0.0,M,,*7E       
$GNGLL,3110.87461,N,12131.47467,E,042709.000,A,E*42                            
$GNGSA,A,2,,,,,,,,,,,,,4.0,3.0,2.6,1*33                                        
$GNGSA,A,2,,,,,,,,,,,,,4.0,3.0,2.6,4*36                                        
$GPGSV,4,1,13,02,34,144,,05,57,034,,13,73,032,,15,68,266,,0*69                 
$GPGSV,4,2,13,18,25,319,,20,37,077,,23,08,287,,24,18,183,,0*63                 
$GPGSV,4,3,13,29,37,252,16,30,19,052,,193,71,049,,195,39,172,,0*62             
$GPGSV,4,4,13,199,53,170,,0*66                                                 
$BDGSV,4,1,13,01,46,141,,03,54,201,,08,71,009,,12,53,274,,0*76                 
$BDGSV,4,2,13,13,62,338,,16,57,207,,19,12,065,,21,47,293,,0*7E                 
$BDGSV,4,3,13,22,54,026,,35,19,174,,38,77,061,,39,68,211,,0*72                 
$BDGSV,4,4,13,44,53,227,,0*47                                                  
$GNRMC,042709.000,A,3110.87461,N,12131.47467,E,33.26,80.61,270921,,,E,V*0B     
$GNVTG,80.61,T,,M,33.26,N,61.61,K,E*1C                                         
$GNZDA,042709.000,27,09,2021,00,00*4D                                          
$GPTXT,01,01,01,ANTENNA OPEN*25                                                
$GPTXT,01,01,02,INS_INF=3,9,0,2,0,RAM,1*6D                                     
$GNGGA,042710.000,3110.87302,N,12131.46754,E,6,00,3.0,935.2,M,0.0,M,,*72       
$GNGLL,3110.87302,N,12131.46754,E,042710.000,A,E*4A                            
$GNGSA,A,2,,,,,,,,,,,,,4.0,3.0,2.6,1*33                                        
$GNGSA,A,2,,,,,,,,,,,,,4.0,3.0,2.6,4*36                                        
$GPGSV,4,1,13,02,34,144,,05,57,034,,13,73,032,,15,68,266,,0*69                 
$GPGSV,4,2,13,18,25,319,,20,37,077,,23,08,287,,24,18,183,,0*63                 
$GPGSV,4,3,13,29,37,252,,30,19,052,,193,71,049,,195,39,172,,0*65               
$GPGSV,4,4,13,199,53,170,,0*66                                                 
$BDGSV,4,1,13,01,46,141,,03,54,201,,08,71,009,,12,53,274,,0*76                 
$BDGSV,4,2,13,13,62,338,,16,57,207,,19,12,065,,21,47,293,,0*7E                 
$BDGSV,4,3,13,22,54,026,,35,19,174,,38,77,061,,39,68,211,,0*72                 
$BDGSV,4,4,13,44,53,227,,0*47                                                  
$GNRMC,042710.000,A,3110.87302,N,12131.46754,E,34.77,80.09,270921,,,E,V*0E     
$GNVTG,80.09,T,,M,34.77,N,64.40,K,E*17                                         
$GNZDA,042710.000,27,09,2021,00,00*45                                          
$GPTXT,01,01,01,ANTENNA OPEN*25                                                
$GPTXT,01,01,02,INS_INF=3,9,0,2,0,RAM,1*6D                                     
$GNGGA,042711.000,3110.87321,N,12131.46105,E,6,00,3.0,933.4,M,0.0,M,,*70       
$GNGLL,3110.87321,N,12131.46105,E,042711.000,A,E*48                            
$GNGSA,A,2,,,,,,,,,,,,,4.0,3.0,2.6,1*33                                        
$GNGSA,A,2,,,,,,,,,,,,,4.0,3.0,2.6,4*36                                        
$GPGSV,4,1,13,02,34,144,,05,57,034,,13,73,032,,15,68,266,,0*69                 
$GPGSV,4,2,13,18,25,319,,20,37,077,,23,08,287,,24,18,183,,0*63                 
$GPGSV,4,3,13,29,37,252,,30,19,052,,193,71,049,,195,39,172,,0*65               
$GPGSV,4,4,13,199,53,170,,0*66                                                 
$BDGSV,4,1,13,01,46,141,,03,54,201,,08,71,009,,12,53,274,,0*76                 
$BDGSV,4,2,13,13,62,338,,16,57,207,,19,12,065,,21,47,293,,0*7E                 
$BDGSV,4,3,13,22,54,026,,35,19,174,,38,77,061,,39,68,211,,0*72                 
$BDGSV,4,4,13,44,53,227,,0*47                                                  
$GNRMC,042711.000,A,3110.87321,N,12131.46105,E,36.21,76.65,270921,,,E,V*0E     
$GNVTG,76.65,T,,M,36.21,N,67.07,K,E*15                                         
$GNZDA,042711.000,27,09,2021,00,00*44                                          
$GPTXT,01,01,01,ANTENNA OPEN*25                                                
$GPTXT,01,01,02,INS_INF=3,9,0,2,0,RAM,1*6D                                     
$GNGGA,042712.000,3110.87429,N,12131.45465,E,6,00,3.0,931.8,M,0.0,M,,*72       
$GNGLL,3110.87429,N,12131.45465,E,042712.000,A,E*44                            
$GNGSA,A,2,,,,,,,,,,,,,4.0,3.0,2.6,1*33                                        
$GNGSA,A,2,,,,,,,,,,,,,4.0,3.0,2.6,4*36                                        
$GPGSV,4,1,13,02,34,144,,05,57,034,,13,73,032,,15,68,266,,0*69                 
$GPGSV,4,2,13,18,25,319,,20,37,077,,23,08,287,,24,18,183,,0*63                 
$GPGSV,4,3,13,29,37,252,,30,19,052,,193,71,049,,195,39,172,,0*65               
$GPGSV,4,4,13,199,53,170,,0*66                                                 
$BDGSV,4,1,13,01,46,141,,03,54,201,,08,71,009,,12,53,274,,0*76                 
$BDGSV,4,2,13,13,62,338,,16,57,207,,19,12,065,,21,47,293,,0*7E                 
$BDGSV,4,3,13,22,54,026,,35,19,174,,38,77,061,,39,68,211,,0*72                 
$BDGSV,4,4,13,44,53,227,,0*47                                                  
$GNRMC,042712.000,A,3110.87429,N,12131.45465,E,37.78,75.41,270921,,,E,V*0A     
$GNVTG,75.41,T,,M,37.78,N,69.97,K,E*1A                                         
$GNZDA,042712.000,27,09,2021,00,00*47                                          
$GPTXT,01,01,01,ANTENNA OPEN*25                                                
$GPTXT,01,01,02,INS_INF=3,9,0,2,0,RAM,1*6D                                     
$GNGGA,042713.000,3110.87654,N,12131.44858,E,6,00,3.0,930.4,M,0.0,M,,*75       
$GNGLL,3110.87654,N,12131.44858,E,042713.000,A,E*4E                            
$GNGSA,A,2,,,,,,,,,,,,,4.0,3.0,2.6,1*33                                        
$GNGSA,A,2,,,,,,,,,,,,,4.0,3.0,2.6,4*36                                        
$GPGSV,4,1,13,02,34,144,,05,57,034,,13,73,032,,15,68,266,,0*69                 
$GPGSV,4,2,13,18,25,319,,20,37,077,,23,08,287,,24,18,183,,0*63                 
$GPGSV,4,3,13,29,37,252,13,30,19,052,,193,71,049,,195,39,172,,0*67             
$GPGSV,4,4,13,199,53,170,,0*66                                                 
$BDGSV,4,1,13,01,46,141,,03,54,201,,08,71,009,,12,53,274,,0*76                 
$BDGSV,4,2,13,13,62,338,,16,57,207,,19,12,065,,21,47,293,,0*7E                 
$BDGSV,4,3,13,22,54,026,,35,19,174,,38,77,061,,39,68,211,,0*72                 
$BDGSV,4,4,13,44,52,227,,0*46                                                  
$GNRMC,042713.000,A,3110.87654,N,12131.44858,E,39.36,74.23,270921,,,E,V*01     
$GNVTG,74.23,T,,M,39.36,N,72.89,K,E*1E                                         
$GNZDA,042713.000,27,09,2021,00,00*46                                          
$GPTXT,01,01,01,ANTENNA OPEN*25                                                
$GPTXT,01,01,02,INS_INF=3,9,0,2,0,RAM,1*6D                                     
$GNGGA,042714.000,3110.87984,N,12131.44280,E,6,00,3.0,929.1,M,0.0,M,,*72       
$GNGLL,3110.87984,N,12131.44280,E,042714.000,A,E*44                            
$GNGSA,A,2,,,,,,,,,,,,,4.0,3.0,2.6,1*33                                        
$GNGSA,A,2,,,,,,,,,,,,,4.0,3.0,2.6,4*36                                        
$GPGSV,4,1,13,02,34,144,,05,57,034,,13,73,032,,15,68,266,,0*69                 
$GPGSV,4,2,13,18,25,319,,20,37,077,,23,08,287,,24,18,183,,0*63                 
$GPGSV,4,3,13,29,37,252,13,30,19,052,,193,71,049,,195,39,172,,0*67             
$GPGSV,4,4,13,199,53,170,,0*66                                                 
$BDGSV,4,1,13,01,46,141,,03,54,201,,08,71,009,,12,53,273,,0*71                 
$BDGSV,4,2,13,13,62,338,,16,57,207,,19,12,065,,21,47,293,,0*7E                 
$BDGSV,4,3,13,22,54,026,,35,19,174,,38,77,061,,39,68,211,,0*72                 
$BDGSV,4,4,13,44,52,227,,0*46                                                  
$GNRMC,042714.000,A,3110.87984,N,12131.44280,E,41.18,73.20,270921,,,E,V*0C     
$GNVTG,73.20,T,,M,41.18,N,76.26,K,E*18                                         
$GNZDA,042714.000,27,09,2021,00,00*41                                          
$GPTXT,01,01,01,ANTENNA OPEN*25                                                
$GPTXT,01,01,02,INS_INF=3,9,0,2,0,RAM,1*6D                                     
$GNGGA,042715.000,3110.88399,N,12131.43724,E,6,00,3.0,927.9,M,0.0,M,,*70       
$GNGLL,3110.88399,N,12131.43724,E,042715.000,A,E*40                            
$GNGSA,A,2,,,,,,,,,,,,,4.0,3.0,2.6,1*33                                        
$GNGSA,A,2,,,,,,,,,,,,,4.0,3.0,2.6,4*36                                        
$GPGSV,4,1,13,02,34,144,,05,57,034,,13,73,032,,15,68,266,,0*69                 
$GPGSV,4,2,13,18,25,319,,20,37,077,,23,08,287,,24,18,183,,0*63                 
$GPGSV,4,3,13,29,37,252,13,30,19,052,,193,71,049,,195,39,172,,0*67             
$GPGSV,4,4,13,199,53,170,,0*66                                                 
$BDGSV,4,1,13,01,46,141,,03,54,201,,08,71,009,,12,53,273,,0*71                 
$BDGSV,4,2,13,13,62,338,,16,57,207,,19,12,065,,21,47,293,,0*7E                 
$BDGSV,4,3,13,22,54,026,,35,19,174,,38,77,061,,39,68,211,,0*72                 
$BDGSV,4,4,13,44,52,227,,0*46                                                  
$GNRMC,042715.000,A,3110.88399,N,12131.43724,E,42.76,72.20,270921,,,E,V*02     
$GNVTG,72.20,T,,M,42.76,N,79.20,K,E*1B                                         
$GNZDA,042715.000,27,09,2021,00,00*40                                          
$GPTXT,01,01,01,ANTENNA OPEN*25                                                
$GPTXT,01,01,02,INS_INF=3,9,0,2,0,RAM,1*6D                                     
$GNGGA,042716.000,3110.88877,N,12131.43159,E,6,00,3.0,927.0,M,0.0,M,,*7D       
$GNGLL,3110.88877,N,12131.43159,E,042716.000,A,E*44                            
$GNGSA,A,2,,,,,,,,,,,,,4.0,3.0,2.6,1*33                                        
$GNGSA,A,2,,,,,,,,,,,,,4.0,3.0,2.6,4*36                                        
$GPGSV,4,1,13,02,34,144,,05,57,034,,13,73,032,,15,68,266,,0*69                 
$GPGSV,4,2,13,18,25,319,,20,37,077,,23,08,287,,24,18,183,,0*63                 
$GPGSV,4,3,13,29,37,252,13,30,19,052,,193,71,049,,195,39,172,,0*67             
$GPGSV,4,4,13,199,53,170,,0*66                                                 
$BDGSV,4,1,13,01,46,141,,03,54,201,,08,71,009,,12,53,273,,0*71                 
$BDGSV,4,2,13,13,62,338,,16,57,207,,19,12,065,,21,47,293,,0*7E                 
$BDGSV,4,3,13,22,54,026,,35,19,174,,38,77,061,,39,68,211,,0*72                 
$BDGSV,4,4,13,44,52,227,,0*46                                                  
$GNRMC,042716.000,A,3110.88877,N,12131.43159,E,44.97,71.66,270921,,,E,V*0E     
$GNVTG,71.66,T,,M,44.97,N,83.28,K,E*1E                                         
$GNZDA,042716.000,27,09,2021,00,00*43                                          
$GPTXT,01,01,01,ANTENNA OPEN*25                                                
$GPTXT,01,01,02,INS_INF=3,9,0,2,0,RAM,1*6D                                     
$GNGGA,042717.000,3110.89478,N,12131.42656,E,6,00,3.0,926.0,M,0.0,M,,*76       
$GNGLL,3110.89478,N,12131.42656,E,042717.000,A,E*4E                            
$GNGSA,A,2,,,,,,,,,,,,,4.0,3.0,2.6,1*33                                        
$GNGSA,A,2,,,,,,,,,,,,,4.0,3.0,2.6,4*36                                        
$GPGSV,4,1,13,02,34,144,,05,57,034,,13,73,032,,15,68,266,,0*69                 
$GPGSV,4,2,13,18,25,319,,20,37,077,,23,08,287,,24,18,183,,0*63                 
$GPGSV,4,3,13,29,37,252,13,30,19,052,,193,71,049,,195,39,172,,0*67             
$GPGSV,4,4,13,199,53,170,,0*66                                                 
$BDGSV,4,1,13,01,46,141,,03,54,201,,08,71,009,,12,53,273,,0*71                 
$BDGSV,4,2,13,13,62,338,,16,57,207,,19,12,065,,21,47,293,,0*7E                 
$BDGSV,4,3,13,22,54,026,,35,19,174,,38,77,061,,39,68,211,,0*72                 
$BDGSV,4,4,13,44,52,227,,0*46                                                  
$GNRMC,042717.000,A,3110.89478,N,12131.42656,E,47.08,71.08,270921,,,E,V*09     
$GNVTG,71.08,T,,M,47.08,N,87.19,K,E*15                                         
$GNZDA,042717.000,27,09,2021,00,00*42                                          
$GPTXT,01,01,01,ANTENNA OPEN*25                                                
$GPTXT,01,01,02,INS_INF=3,9,0,2,0,RAM,1*6D                                     
$GNGGA,042718.000,3110.90059,N,12131.42094,E,6,00,3.0,924.9,M,0.0,M,,*75       
$GNGLL,3110.90059,N,12131.42094,E,042718.000,A,E*46                            
$GNGSA,A,2,,,,,,,,,,,,,4.0,3.0,2.6,1*33                                        
$GNGSA,A,2,,,,,,,,,,,,,4.0,3.0,2.6,4*36                                        
$GPGSV,4,1,13,02,34,144,,05,57,034,,13,73,032,,15,68,266,,0*69                 
$GPGSV,4,2,13,18,25,319,,20,37,077,,23,08,287,,24,18,183,,0*63                 
$GPGSV,4,3,13,29,37,252,13,30,19,052,,193,71,049,,195,39,172,,0*67             
$GPGSV,4,4,13,199,53,170,,0*66                                                 
$BDGSV,4,1,13,01,46,141,,03,54,201,,08,71,009,,12,53,273,,0*71                 
$BDGSV,4,2,13,13,62,338,,16,57,207,,19,12,065,,21,47,293,,0*7E                 
$BDGSV,4,3,13,22,54,026,,35,19,174,,38,77,061,,39,68,211,,0*72                 
$BDGSV,4,4,13,44,52,227,,0*46                                                  
$GNRMC,042718.000,A,3110.90059,N,12131.42094,E,49.09,70.92,270921,,,E,V*0C     
$GNVTG,70.92,T,,M,49.09,N,90.92,K,E*1D                                         
$GNZDA,042718.000,27,09,2021,00,00*4D                                          
$GPTXT,01,01,01,ANTENNA OPEN*25                                                
$GPTXT,01,01,02,INS_INF=3,9,0,2,0,RAM,1*6D                                     
$GNGGA,042719.000,3110.90688,N,12131.41520,E,6,00,3.0,924.0,M,0.0,M,,*7E       
$GNGLL,3110.90688,N,12131.41520,E,042719.000,A,E*44                            
$GNGSA,A,2,,,,,,,,,,,,,4.0,3.0,2.6,1*33                                        
$GNGSA,A,2,,,,,,,,,,,,,4.0,3.0,2.6,4*36                                        
$GPGSV,4,1,13,02,34,144,,05,57,035,,13,73,032,,15,68,266,,0*68                 
$GPGSV,4,2,13,18,25,319,,20,37,077,,23,08,287,,24,18,183,,0*63                 
$GPGSV,4,3,13,29,37,252,13,30,19,052,,193,71,049,,195,39,172,,0*67             
$GPGSV,4,4,13,199,53,170,,0*66                                                 
$BDGSV,4,1,13,01,46,141,,03,54,201,,08,71,009,,12,53,273,,0*71                 
$BDGSV,4,2,13,13,62,338,,16,57,207,,19,12,065,,21,47,293,,0*7E                 
$BDGSV,4,3,13,22,54,026,,35,19,174,,38,77,061,,39,68,211,,0*72                 
$BDGSV,4,4,13,44,52,227,,0*46                                                  
$GNRMC,042719.000,A,3110.90688,N,12131.41520,E,51.06,70.42,270921,,,E,V*05     
$GNVTG,70.42,T,,M,51.06,N,94.57,K,E*1B                                         
$GNZDA,042719.000,27,09,2021,00,00*4C                                          
$GPTXT,01,01,01,ANTENNA OPEN*25                                                
$GPTXT,01,01,02,INS_INF=3,9,0,2,0,RAM,1*6D                                     
$GNGGA,042720.000,3110.91523,N,12131.41079,E,6,00,3.0,923.8,M,0.0,M,,*71       
$GNGLL,3110.91523,N,12131.41079,E,042720.000,A,E*44                            
$GNGSA,A,2,,,,,,,,,,,,,4.0,3.0,2.6,1*33                                        
$GNGSA,A,2,,,,,,,,,,,,,4.0,3.0,2.6,4*36                                        
$GPGSV,4,1,13,02,34,144,,05,57,035,,13,73,032,,15,68,266,,0*68                 
$GPGSV,4,2,13,18,25,319,,20,37,077,,23,08,287,,24,18,183,,0*63                 
$GPGSV,4,3,13,29,37,252,13,30,19,052,,193,71,049,,195,39,172,,0*67             
$GPGSV,4,4,13,199,53,170,,0*66                                                 
$BDGSV,4,1,13,01,46,141,,03,54,201,,08,71,009,,12,53,273,,0*71                 
$BDGSV,4,2,13,13,62,338,,16,57,207,,19,12,065,,21,47,293,,0*7E                 
$BDGSV,4,3,13,22,54,026,,35,19,174,,38,77,061,,39,68,211,,0*72                 
$BDGSV,4,4,13,44,52,227,,0*46                                                  
$GNRMC,042720.000,A,3110.91523,N,12131.41079,E,52.20,68.49,270921,,,E,V*00     
$GNVTG,68.49,T,,M,52.20,N,96.68,K,E*10                                         
$GNZDA,042720.000,27,09,2021,00,00*46                                          
$GPTXT,01,01,01,ANTENNA OPEN*25                                                
$GPTXT,01,01,02,INS_INF=3,9,0,2,0,RAM,1*6D                                     
$GNGGA,042721.000,3110.92468,N,12131.40687,E,6,00,3.0,924.2,M,0.0,M,,*76       
$GNGLL,3110.92468,N,12131.40687,E,042721.000,A,E*4E                            
$GNGSA,A,2,,,,,,,,,,,,,4.0,3.0,2.6,1*33                                        
$GNGSA,A,2,,,,,,,,,,,,,4.0,3.0,2.6,4*36                                        
$GPGSV,4,1,13,02,34,144,,05,57,035,,13,73,032,,15,68,266,,0*68                 
$GPGSV,4,2,13,18,25,319,,20,37,077,,23,08,287,,24,18,183,,0*63                 
$GPGSV,4,3,13,29,37,252,13,30,19,052,,193,71,049,,195,39,172,,0*67             
$GPGSV,4,4,13,199,53,170,,0*66                                                 
$BDGSV,4,1,13,01,46,141,,03,54,201,,08,71,009,,12,53,273,,0*71                 
$BDGSV,4,2,13,13,62,338,,16,57,207,,19,12,065,,21,47,293,,0*7E                 
$BDGSV,4,3,13,22,54,026,,35,19,174,,38,77,061,,39,68,211,,0*72                 
$BDGSV,4,4,13,44,52,227,,0*46                                                  
$GNRMC,042721.000,A,3110.92468,N,12131.40687,E,53.61,67.01,270921,,,E,V*0D     
$GNVTG,67.01,T,,M,53.61,N,99.28,K,E*1C                                         
$GNZDA,042721.000,27,09,2021,00,00*47                                          
$GPTXT,01,01,01,ANTENNA OPEN*25                                                
$GPTXT,01,01,02,INS_INF=3,9,0,2,0,RAM,1*6D                                     
$GNGGA,042722.000,3110.93378,N,12131.40272,E,6,00,3.0,924.4,M,0.0,M,,*7A       
$GNGLL,3110.93378,N,12131.40272,E,042722.000,A,E*44                            
$GNGSA,A,2,,,,,,,,,,,,,4.0,3.0,2.6,1*33                                        
$GNGSA,A,2,,,,,,,,,,,,,4.0,3.0,2.6,4*36                                        
$GPGSV,4,1,13,02,34,144,,05,57,035,,13,73,032,,15,68,266,,0*68                 
$GPGSV,4,2,13,18,25,319,,20,37,077,,23,08,287,,24,18,183,,0*63                 
$GPGSV,4,3,13,29,37,251,13,30,19,052,,193,71,049,,195,39,172,,0*64             
$GPGSV,4,4,13,199,53,170,,0*66                                                 
$BDGSV,4,1,13,01,46,141,,03,54,201,,08,71,010,,12,53,273,,0*79                 
$BDGSV,4,2,13,13,62,338,,16,57,207,,19,12,065,,21,47,293,,0*7E                 
$BDGSV,4,3,13,22,54,026,,35,19,174,,38,77,061,,39,68,211,,0*72                 
$BDGSV,4,4,13,44,52,227,,0*46                                                  
$GNRMC,042722.000,A,3110.93378,N,12131.40272,E,55.24,66.41,270921,,,E,V*05     
$GNVTG,66.41,T,,M,55.24,N,102.30,K,E*24                                        
$GNZDA,042722.000,27,09,2021,00,00*44                                          
$GPTXT,01,01,01,ANTENNA OPEN*25                                                
$GPTXT,01,01,02,INS_INF=3,9,0,2,0,RAM,1*6D                                     
$GNGGA,042723.000,3110.94189,N,12131.39776,E,6,00,3.0,924.4,M,0.0,M,,*7F       
$GNGLL,3110.94189,N,12131.39776,E,042723.000,A,E*41                            
$GNGSA,A,2,,,,,,,,,,,,,4.0,3.0,2.6,1*33                                        
$GNGSA,A,2,,,,,,,,,,,,,4.0,3.0,2.6,4*36                                        
$GPGSV,4,1,13,02,34,144,,05,57,035,,13,73,032,,15,68,266,,0*68                 
$GPGSV,4,2,13,18,25,319,,20,37,077,,23,08,287,,24,18,183,,0*63                 
$GPGSV,4,3,13,29,37,251,13,30,19,052,,193,71,049,,195,39,172,,0*64             
$GPGSV,4,4,13,199,53,170,,0*66                                                 
$BDGSV,4,1,13,01,46,141,,03,54,201,,08,71,010,,12,53,273,,0*79                 
$BDGSV,4,2,13,13,62,338,,16,57,207,,19,11,065,,21,47,293,,0*7D                 
$BDGSV,4,3,13,22,54,026,,35,19,174,,38,77,061,,39,68,211,,0*72                 
$BDGSV,4,4,13,44,52,227,,0*46                                                  
$GNRMC,042723.000,A,3110.94189,N,12131.39776,E,57.10,65.90,270921,,,E,V*0A     
$GNVTG,65.90,T,,M,57.10,N,105.76,K,E*2B                                        
$GNZDA,042723.000,27,09,2021,00,00*45                                          
$GPTXT,01,01,01,ANTENNA OPEN*25                                                
$GPTXT,01,01,02,INS_INF=3,9,0,2,0,RAM,1*6D                                     
$GNGGA,042724.000,3110.94916,N,12131.39241,E,6,00,3.0,924.2,M,0.0,M,,*71       
$GNGLL,3110.94916,N,12131.39241,E,042724.000,A,E*49                            
$GNGSA,A,2,,,,,,,,,,,,,4.0,3.0,2.6,1*33                                        
$GNGSA,A,2,,,,,,,,,,,,,4.0,3.0,2.6,4*36                                        
$GPGSV,4,1,13,02,34,144,,05,57,035,,13,73,032,,15,68,266,,0*68                 
$GPGSV,4,2,13,18,25,319,,20,37,077,,23,08,287,,24,18,183,,0*63                 
$GPGSV,4,3,13,29,37,251,13,30,19,052,,193,71,049,,195,39,172,,0*64             
$GPGSV,4,4,13,199,53,170,,0*66                                                 
$BDGSV,4,1,13,01,46,141,,03,54,201,,08,71,010,,12,53,273,,0*79                 
$BDGSV,4,2,13,13,62,338,,16,57,207,,19,11,065,,21,47,293,,0*7D                 
$BDGSV,4,3,13,22,54,026,,35,19,174,,38,77,061,,39,68,211,,0*72                 
$BDGSV,4,4,13,44,52,227,,0*46                                                  
$GNRMC,042724.000,A,3110.94916,N,12131.39241,E,58.88,65.35,270921,,,E,V*03     
$GNVTG,65.35,T,,M,58.88,N,109.05,K,E*22                                        
$GNZDA,042724.000,27,09,2021,00,00*42                                          
$GPTXT,01,01,01,ANTENNA OPEN*25                                                
$GPTXT,01,01,02,INS_INF=3,9,0,2,0,RAM,1*6D                                     
$GNGGA,042725.000,3110.95519,N,12131.38612,E,6,00,3.0,923.7,M,0.0,M,,*73       
$GNGLL,3110.95519,N,12131.38612,E,042725.000,A,E*49                            
$GNGSA,A,2,,,,,,,,,,,,,4.0,3.0,2.6,1*33                                        
$GNGSA,A,2,,,,,,,,,,,,,4.0,3.0,2.6,4*36                                        
$GPGSV,4,1,13,02,34,144,,05,57,035,,13,73,032,,15,68,266,,0*68                 
$GPGSV,4,2,13,18,25,319,,20,37,077,,23,08,287,,24,18,183,,0*63                 
$GPGSV,4,3,13,29,37,251,15,30,19,052,,193,71,049,,195,39,172,,0*62             
$GPGSV,4,4,13,199,53,170,,0*66                                                 
$BDGSV,4,1,13,01,46,141,,03,54,201,,08,71,010,,12,53,273,,0*79                 
$BDGSV,4,2,13,13,62,338,,16,57,207,,19,11,065,,21,47,293,,0*7D                 
$BDGSV,4,3,13,22,54,026,,35,19,174,,38,77,061,,39,68,211,,0*72                 
$BDGSV,4,4,13,44,52,227,,0*46                                                  
$GNRMC,042725.000,A,3110.95519,N,12131.38612,E,60.95,65.20,270921,,,E,V*00     
$GNVTG,65.20,T,,M,60.95,N,112.87,K,E*21                                        
$GNZDA,042725.000,27,09,2021,00,00*43                                          
$GPTXT,01,01,01,ANTENNA OPEN*25                                                
$GPTXT,01,01,02,INS_INF=3,9,0,2,0,RAM,1*6D                                     
$GNGGA,042726.000,3110.96040,N,12131.37916,E,6,00,3.0,923.0,M,0.0,M,,*79       
$GNGLL,3110.96040,N,12131.37916,E,042726.000,A,E*44                            
$GNGSA,A,2,,,,,,,,,,,,,4.0,3.0,2.6,1*33                                        
$GNGSA,A,2,,,,,,,,,,,,,4.0,3.0,2.6,4*36                                        
$GPGSV,4,1,13,02,34,144,,05,57,035,,13,73,032,,15,68,266,,0*68                 
$GPGSV,4,2,13,18,25,319,,20,37,077,,23,08,287,,24,18,183,,0*63                 
$GPGSV,4,3,13,29,37,251,15,30,19,052,,193,71,049,,195,39,172,,0*62             
$GPGSV,4,4,13,199,53,170,,0*66                                                 
$BDGSV,4,1,13,01,46,141,,03,54,201,,08,71,010,,12,53,273,,0*79                 
$BDGSV,4,2,13,13,62,338,,16,57,207,,19,11,065,,21,47,293,,0*7D                 
$BDGSV,4,3,13,22,54,026,,35,19,174,,38,77,061,,39,68,211,,0*72                 
$BDGSV,4,4,13,44,52,227,,0*46                                                  
$GNRMC,042726.000,A,3110.96040,N,12131.37916,E,63.15,65.06,270921,,,E,V*02     
$GNVTG,65.06,T,,M,63.15,N,116.96,K,E*2A                                        
$GNZDA,042726.000,27,09,2021,00,00*40                                          
$GPTXT,01,01,01,ANTENNA OPEN*25                                                
$GPTXT,01,01,02,INS_INF=3,9,0,2,0,RAM,1*6D                                     
$GNGGA,042727.000,3110.96493,N,12131.37181,E,6,00,3.0,922.0,M,0.0,M,,*75       
$GNGLL,3110.96493,N,12131.37181,E,042727.000,A,E*49                            
$GNGSA,A,2,,,,,,,,,,,,,4.0,3.0,2.6,1*33                                        
$GNGSA,A,2,,,,,,,,,,,,,4.0,3.0,2.6,4*36                                        
$GPGSV,4,1,13,02,34,144,,05,57,035,,13,73,032,,15,68,266,,0*68                 
$GPGSV,4,2,13,18,25,319,,20,37,077,,23,08,287,,24,18,183,,0*63                 
$GPGSV,4,3,13,29,37,251,15,30,19,052,,193,71,049,,195,39,172,,0*62             
$GPGSV,4,4,13,199,53,170,,0*66                                                 
$BDGSV,4,1,13,01,46,141,,03,54,201,,08,71,010,,12,53,273,,0*79                 
$BDGSV,4,2,13,13,62,338,,16,57,207,,19,11,065,,21,47,293,,0*7D                 
$BDGSV,4,3,13,22,54,027,,35,19,174,,38,77,061,,39,68,211,,0*73                 
$BDGSV,4,4,13,44,52,227,,0*46                                                  
$GNRMC,042727.000,A,3110.96493,N,12131.37181,E,65.12,64.61,270921,,,E,V*0E     
$GNVTG,64.61,T,,M,65.12,N,120.60,K,E*27                                        
$GNZDA,042727.000,27,09,2021,00,00*41                                          
$GPTXT,01,01,01,ANTENNA OPEN*25                                                
$GPTXT,01,01,02,INS_INF=3,9,0,2,0,RAM,1*6D                                     
$GNGGA,042728.000,3110.96861,N,12131.36456,E,6,00,3.0,920.6,M,0.0,M,,*71       
$GNGLL,3110.96861,N,12131.36456,E,042728.000,A,E*49                            
$GNGSA,A,2,,,,,,,,,,,,,4.0,3.0,2.6,1*33                                        
$GNGSA,A,2,,,,,,,,,,,,,4.0,3.0,2.6,4*36                                        
$GPGSV,4,1,13,02,34,144,,05,57,035,,13,73,032,,15,68,266,,0*68                 
$GPGSV,4,2,13,18,25,319,,20,37,077,,23,08,287,,24,18,183,,0*63                 
$GPGSV,4,3,13,29,37,251,15,30,19,052,,193,71,049,,195,39,172,,0*62             
$GPGSV,4,4,13,199,53,170,,0*66                                                 
$BDGSV,4,1,13,01,46,141,,03,54,201,,08,71,010,,12,53,273,,0*79                 
$BDGSV,4,2,13,13,62,338,,16,57,207,,19,11,065,,21,47,293,,0*7D                 
$BDGSV,4,3,13,22,54,027,,35,19,174,,38,77,061,,39,68,211,,0*73                 
$BDGSV,4,4,13,44,52,227,,0*46                                                  
$GNRMC,042728.000,A,3110.96861,N,12131.36456,E,67.12,64.14,270921,,,E,V*0E     
$GNVTG,64.14,T,,M,67.12,N,124.30,K,E*26                                        
$GNZDA,042728.000,27,09,2021,00,00*4E                                          
$GPTXT,01,01,01,ANTENNA OPEN*25                                                
$GPTXT,01,01,02,INS_INF=3,9,0,2,0,RAM,1*6D                                     
$GNGGA,042729.000,3110.97229,N,12131.35761,E,6,00,3.0,919.9,M,0.0,M,,*76       
$GNGLL,3110.97229,N,12131.35761,E,042729.000,A,E*4B                            
$GNGSA,A,2,,,,,,,,,,,,,4.0,3.0,2.6,1*33                                        
$GNGSA,A,2,,,,,,,,,,,,,4.0,3.0,2.6,4*36                                        
$GPGSV,4,1,13,02,34,144,,05,57,035,,13,73,032,,15,68,266,,0*68                 
$GPGSV,4,2,13,18,25,319,,20,37,077,,23,08,287,,24,18,183,,0*63                 
$GPGSV,4,3,13,29,37,251,15,30,19,052,,193,71,049,,195,39,172,,0*62             
$GPGSV,4,4,13,199,53,170,,0*66                                                 
$BDGSV,4,1,13,01,46,141,,03,54,201,,08,71,010,,12,53,273,,0*79                 
$BDGSV,4,2,13,13,62,338,,16,57,207,,19,11,065,,21,47,293,,0*7D                 
$BDGSV,4,3,13,22,54,027,,35,19,174,,38,77,061,,39,68,211,,0*73                 
$BDGSV,4,4,13,44,52,227,,0*46                                                  
$GNRMC,042729.000,A,3110.97229,N,12131.35761,E,68.58,63.09,270921,,,E,V*06     
$GNVTG,63.09,T,,M,68.58,N,127.01,K,E*2D                                        
$GNZDA,042729.000,27,09,2021,00,00*4F                                          
$GPTXT,01,01,01,ANTENNA OPEN*25                                                
$GPTXT,01,01,02,INS_INF=3,9,0,2,0,RAM,1*6D                                     
$GNGGA,042730.000,3110.97872,N,12131.35460,E,6,00,3.0,921.0,M,0.0,M,,*7A       
$GNGLL,3110.97872,N,12131.35460,E,042730.000,A,E*45                            
$GNGSA,A,2,,,,,,,,,,,,,4.0,3.0,2.6,1*33                                        
$GNGSA,A,2,,,,,,,,,,,,,4.0,3.0,2.6,4*36                                        
$GPGSV,4,1,13,02,34,144,,05,57,035,,13,73,032,,15,68,266,,0*68                 
$GPGSV,4,2,13,18,25,319,,20,37,077,,23,08,287,,24,18,183,,0*63                 
$GPGSV,4,3,13,29,37,251,15,30,19,052,,193,71,049,,195,39,172,,0*62             
$GPGSV,4,4,13,199,53,170,,0*66                                                 
$BDGSV,4,1,13,01,46,141,,03,54,201,,08,71,010,,12,53,273,,0*79                 
$BDGSV,4,2,13,13,62,338,,16,57,207,,19,11,065,,21,47,293,,0*7D                 
$BDGSV,4,3,13,22,54,027,,35,19,174,,38,77,061,,39,68,211,,0*73                 
$BDGSV,4,4,13,44,52,227,,0*46                                                  
$GNRMC,042730.000,A,3110.97872,N,12131.35460,E,68.96,60.49,270921,,,E,V*0D     
$GNVTG,60.49,T,,M,68.96,N,127.71,K,E*2F                                        
$GNZDA,042730.000,27,09,2021,00,00*47                                          
$GPTXT,01,01,01,ANTENNA OPEN*25                                                
$GPTXT,01,01,02,INS_INF=3,9,0,2,0,RAM,1*6D                                     
$GNGGA,042731.000,3110.99322,N,12131.36177,E,6,00,3.0,927.5,M,0.0,M,,*78       
$GNGLL,3110.99322,N,12131.36177,E,042731.000,A,E*44                            
$GNGSA,A,2,,,,,,,,,,,,,4.0,3.0,2.6,1*33                                        
$GNGSA,A,2,,,,,,,,,,,,,4.0,3.0,2.6,4*36                                        
$GPGSV,4,1,13,02,34,144,,05,57,035,,13,73,032,,15,68,266,,0*68                 
$GPGSV,4,2,13,18,25,319,,20,37,077,,23,08,287,,24,18,183,,0*63                 
$GPGSV,4,3,13,29,37,251,15,30,19,052,,193,71,049,,195,39,172,,0*62             
$GPGSV,4,4,13,199,53,170,,0*66                                                 
$BDGSV,4,1,13,01,46,141,,03,54,201,,08,71,010,,12,53,273,,0*79                 
$BDGSV,4,2,13,13,62,338,,16,57,207,,19,11,065,,21,47,293,,0*7D                 
$BDGSV,4,3,13,22,54,027,,35,19,174,,38,77,061,,39,68,211,,0*73                 
$BDGSV,4,4,13,44,52,227,,0*46                                                  
$GNRMC,042731.000,A,3110.99322,N,12131.36177,E,67.01,55.03,270921,,,E,V*05     
$GNVTG,55.03,T,,M,67.01,N,124.11,K,E*23                                        
$GNZDA,042731.000,27,09,2021,00,00*46                                          
$GPTXT,01,01,01,ANTENNA OPEN*25                                                
$GPTXT,01,01,02,INS_INF=3,9,0,2,0,RAM,1*6D                                     
$GNGGA,042732.000,3111.00728,N,12131.36878,E,6,00,3.0,934.3,M,0.0,M,,*76       
$GNGLL,3111.00728,N,12131.36878,E,042732.000,A,E*4E                            
$GNGSA,A,2,,,,,,,,,,,,,4.0,3.0,2.6,1*33                                        
$GNGSA,A,2,,,,,,,,,,,,,4.0,3.0,2.6,4*36                                        
$GPGSV,4,1,13,02,34,144,,05,57,035,,13,73,032,,15,68,266,,0*68                 
$GPGSV,4,2,13,18,25,319,,20,37,077,,23,08,287,,24,18,183,,0*63                 
$GPGSV,4,3,13,29,37,251,15,30,19,052,,193,71,049,,195,39,172,,0*62             
$GPGSV,4,4,13,199,53,170,,0*66                                                 
$BDGSV,4,1,13,01,46,141,,03,54,201,,08,71,010,,12,53,273,,0*79                 
$BDGSV,4,2,13,13,62,338,,16,57,207,,19,11,065,,21,47,293,,0*7D                 
$BDGSV,4,3,13,22,54,027,,35,19,174,,38,77,061,,39,68,211,,0*73                 
$BDGSV,4,4,13,44,52,227,,0*46                                                  
$GNRMC,042732.000,A,3111.00728,N,12131.36878,E,66.68,53.95,270921,,,E,V*08     
$GNVTG,53.95,T,,M,66.68,N,123.48,K,E*2F                                        
$GNZDA,042732.000,27,09,2021,00,00*45                                          
$GPTXT,01,01,01,ANTENNA OPEN*25                                                
$GPTXT,01,01,02,INS_INF=3,9,0,2,0,RAM,1*6D                                     
$GNGGA,042733.000,3111.01544,N,12131.36971,E,6,00,3.0,938.0,M,0.0,M,,*79       
$GNGLL,3111.01544,N,12131.36971,E,042733.000,A,E*4E                            
$GNGSA,A,2,,,,,,,,,,,,,4.0,3.0,2.6,1*33                                        
$GNGSA,A,2,,,,,,,,,,,,,4.0,3.0,2.6,4*36                                        
$GPGSV,4,1,13,02,34,144,,05,57,035,,13,73,032,,15,68,266,,0*68                 
$GPGSV,4,2,13,18,25,319,,20,37,077,,23,08,287,,24,18,183,,0*63                 
$GPGSV,4,3,13,29,37,251,17,30,19,052,,193,71,049,,195,39,172,,0*60             
$GPGSV,4,4,13,199,53,170,,0*66                                                 
$BDGSV,4,1,13,01,46,141,,03,54,201,,08,71,010,,12,53,273,,0*79                 
$BDGSV,4,2,13,13,62,338,,16,57,207,,19,11,065,,21,47,293,,0*7D                 
$BDGSV,4,3,13,22,54,027,,35,18,174,,38,77,061,,39,68,211,,0*72                 
$BDGSV,4,4,13,44,52,227,,0*46                                                  
$GNRMC,042733.000,A,3111.01544,N,12131.36971,E,68.76,55.16,270921,,,E,V*04     
$GNVTG,55.16,T,,M,68.76,N,127.35,K,E*2D                                        
$GNZDA,042733.000,27,09,2021,00,00*44                                          
$GPTXT,01,01,01,ANTENNA OPEN*25                                                
$GPTXT,01,01,02,INS_INF=3,9,0,2,0,RAM,1*6D                                     
$GNGGA,042734.000,3111.01725,N,12131.36450,E,6,00,3.0,938.2,M,0.0,M,,*77       
$GNGLL,3111.01725,N,12131.36450,E,042734.000,A,E*42                            
$GNGSA,A,2,,,,,,,,,,,,,4.0,3.0,2.6,1*33                                        
$GNGSA,A,2,,,,,,,,,,,,,4.0,3.0,2.6,4*36                                        
$GPGSV,4,1,13,02,34,144,,05,57,035,,13,73,032,,15,68,266,,0*68                 
$GPGSV,4,2,13,18,25,319,,20,37,077,,23,08,287,,24,18,183,,0*63                 
$GPGSV,4,3,13,29,37,251,17,30,19,052,,193,71,049,,195,39,172,,0*60             
$GPGSV,4,4,13,199,53,170,,0*66                                                 
$BDGSV,4,1,13,01,46,141,,03,54,201,,08,71,010,,12,53,273,,0*79                 
$BDGSV,4,2,13,13,62,338,,16,57,207,,19,11,065,,21,47,293,,0*7D                 
$BDGSV,4,3,13,22,54,027,,35,18,174,,38,77,062,,39,68,211,,0*71                 
$BDGSV,4,4,13,44,52,227,,0*46                                                  
$GNRMC,042734.000,A,3111.01725,N,12131.36450,E,71.89,57.51,270921,,,E,V*01     
$GNVTG,57.51,T,,M,71.89,N,133.15,K,E*23                                        
$GNZDA,042734.000,27,09,2021,00,00*43                                          
$GPTXT,01,01,01,ANTENNA OPEN*25                                                
$GPTXT,01,01,02,INS_INF=3,9,0,2,0,RAM,1*6D                                     
$GNGGA,042735.000,3111.01555,N,12131.35598,E,6,00,3.0,936.9,M,0.0,M,,*70       
$GNGLL,3111.01555,N,12131.35598,E,042735.000,A,E*40                            
$GNGSA,A,2,,,,,,,,,,,,,4.0,3.0,2.6,1*33                                        
$GNGSA,A,2,,,,,,,,,,,,,4.0,3.0,2.6,4*36                                        
$GPGSV,4,1,13,02,33,144,,05,57,035,,13,73,032,,15,68,266,,0*6F                 
$GPGSV,4,2,13,18,25,319,,20,37,077,,23,08,287,,24,18,183,,0*63                 
$GPGSV,4,3,13,29,37,251,17,30,19,052,,193,71,048,,195,39,172,,0*61             
$GPGSV,4,4,13,199,53,170,,0*66                                                 
$BDGSV,4,1,13,01,46,141,,03,54,201,,08,71,010,,12,53,273,,0*79                 
$BDGSV,4,2,13,13,62,338,,16,57,207,,19,11,065,,21,47,293,,0*7D                 
$BDGSV,4,3,13,22,54,027,,35,18,174,,38,77,062,,39,68,211,,0*71                 
$BDGSV,4,4,13,44,52,227,,0*46                                                  
$GNRMC,042735.000,A,3111.01555,N,12131.35598,E,74.52,58.42,270921,,,E,V*0D     
$GNVTG,58.42,T,,M,74.52,N,138.01,K,E*23                                        
$GNZDA,042735.000,27,09,2021,00,00*42                                          
$GPTXT,01,01,01,ANTENNA OPEN*25                                                
$GPTXT,01,01,02,INS_INF=3,9,0,2,0,RAM,1*6D                                     
$GNGGA,042736.000,3111.01171,N,12131.34593,E,6,00,3.0,935.0,M,0.0,M,,*71       
$GNGLL,3111.01171,N,12131.34593,E,042736.000,A,E*4B                            
$GNGSA,A,2,,,,,,,,,,,,,4.0,3.0,2.6,1*33                                        
$GNGSA,A,2,,,,,,,,,,,,,4.0,3.0,2.6,4*36                                        
$GPGSV,4,1,13,02,33,144,,05,57,035,,13,73,032,,15,68,266,,0*6F                 
$GPGSV,4,2,13,18,25,319,,20,37,077,,23,08,287,,24,18,183,,0*63                 
$GPGSV,4,3,13,29,37,251,17,30,19,052,,193,71,048,,195,39,172,,0*61             
$GPGSV,4,4,13,199,53,170,,0*66                                                 
$BDGSV,4,1,13,01,46,141,,03,54,201,,08,71,010,,12,53,273,,0*79                 
$BDGSV,4,2,13,13,62,338,,16,57,207,,19,11,065,,21,47,293,,0*7D                 
$BDGSV,4,3,13,22,54,027,,35,18,174,,38,77,062,,39,68,211,,0*71                 
$BDGSV,4,4,13,44,52,227,,0*46                                                  
$GNRMC,042736.000,A,3111.01171,N,12131.34593,E,76.68,58.43,270921,,,E,V*0C     
$GNVTG,58.43,T,,M,76.68,N,142.00,K,E*25                                        
$GNZDA,042736.000,27,09,2021,00,00*41                                          
$GPTXT,01,01,01,ANTENNA OPEN*25                                                
$GPTXT,01,01,02,INS_INF=3,9,0,2,0,RAM,1*6D                                     
$GNGGA,042737.000,3111.00672,N,12131.33483,E,6,00,3.0,932.8,M,0.0,M,,*7D       
$GNGLL,3111.00672,N,12131.33483,E,042737.000,A,E*48                            
$GNGSA,A,2,,,,,,,,,,,,,4.0,3.0,2.6,1*33                                        
$GNGSA,A,2,,,,,,,,,,,,,4.0,3.0,2.6,4*36                                        
$GPGSV,4,1,13,02,33,144,,05,57,035,,13,73,032,,15,68,266,,0*6F                 
$GPGSV,4,2,13,18,25,319,,20,37,077,,23,08,287,,24,18,183,,0*63                 
$GPGSV,4,3,13,29,37,251,17,30,19,052,,193,71,048,,195,39,172,,0*61             
$GPGSV,4,4,13,199,53,170,,0*66                                                 
$BDGSV,4,1,13,01,46,141,,03,54,201,,08,71,010,,12,53,273,,0*79                 
$BDGSV,4,2,13,13,62,338,,16,57,207,,19,11,065,,21,47,293,,0*7D                 
$BDGSV,4,3,13,22,54,027,,35,18,174,,38,77,062,,39,68,211,,0*71                 
$BDGSV,4,4,13,44,52,227,,0*46                                                  
$GNRMC,042737.000,A,3111.00672,N,12131.33483,E,78.96,58.44,270921,,,E,V*07     
$GNVTG,58.44,T,,M,78.96,N,146.23,K,E*28                                        
$GNZDA,042737.000,27,09,2021,00,00*40                                          
$GPTXT,01,01,01,ANTENNA OPEN*25                                                
$GPTXT,01,01,02,INS_INF=3,9,0,2,0,RAM,1*6D                                     
$GNGGA,042738.000,3111.00129,N,12131.32326,E,6,00,3.0,930.5,M,0.0,M,,*7D       
$GNGLL,3111.00129,N,12131.32326,E,042738.000,A,E*47                            
$GNGSA,A,2,,,,,,,,,,,,,4.0,3.0,2.6,1*33                                        
$GNGSA,A,2,,,,,,,,,,,,,4.0,3.0,2.6,4*36                                        
$GPGSV,4,1,13,02,33,144,,05,57,035,,13,73,032,,15,68,266,,0*6F                 
$GPGSV,4,2,13,18,25,319,,20,37,077,,23,08,287,,24,18,183,,0*63                 
$GPGSV,4,3,13,29,37,251,17,30,19,052,,193,71,048,,195,39,172,,0*61             
$GPGSV,4,4,13,199,53,170,,0*66                                                 
$BDGSV,4,1,13,01,46,141,,03,54,201,,08,71,010,,12,53,273,,0*79                 
$BDGSV,4,2,13,13,62,338,,16,57,207,,19,11,065,,21,47,293,,0*7D                 
$BDGSV,4,3,13,22,54,027,,35,18,174,,38,77,062,,39,68,211,,0*71                 
$BDGSV,4,4,13,44,52,227,,0*46                                                  
$GNRMC,042738.000,A,3111.00129,N,12131.32326,E,81.15,58.28,270921,,,E,V*0F     
$GNVTG,58.28,T,,M,81.15,N,150.29,K,E*22                                        
$GNZDA,042738.000,27,09,2021,00,00*4F                                          
$GPTXT,01,01,01,ANTENNA OPEN*25                                                
$GPTXT,01,01,02,INS_INF=3,9,0,2,0,RAM,1*6D                                     
$GNGGA,042739.000,3110.99597,N,12131.31216,E,6,00,3.0,928.7,M,0.0,M,,*76       
$GNGLL,3110.99597,N,12131.31216,E,042739.000,A,E*47                            
$GNGSA,A,2,,,,,,,,,,,,,4.0,3.0,2.6,1*33                                        
$GNGSA,A,2,,,,,,,,,,,,,4.0,3.0,2.6,4*36                                        
$GPGSV,4,1,13,02,33,144,,05,57,035,,13,73,032,,15,68,266,,0*6F                 
$GPGSV,4,2,13,18,25,319,,20,37,077,,23,08,287,,24,18,183,,0*63                 
$GPGSV,4,3,13,29,37,251,17,30,19,052,,193,71,048,,195,39,172,,0*61             
$GPGSV,4,4,13,199,53,170,,0*66                                                 
$BDGSV,4,1,13,01,46,141,,03,54,201,,08,71,010,,12,53,273,,0*79                 
$BDGSV,4,2,13,13,62,338,,16,57,207,,19,11,065,,21,47,293,,0*7D                 
$BDGSV,4,3,13,22,54,027,,35,18,174,,38,77,062,,39,68,211,,0*71                 
$BDGSV,4,4,13,44,52,227,,0*46                                                  
$GNRMC,042739.000,A,3110.99597,N,12131.31216,E,82.96,57.65,270921,,,E,V*01     
$GNVTG,57.65,T,,M,82.96,N,153.63,K,E*21                                        
$GNZDA,042739.000,27,09,2021,00,00*4E                                          
$GPTXT,01,01,01,ANTENNA OPEN*25                                                
$GPTXT,01,01,02,INS_INF=3,9,0,2,0,RAM,1*6D                                     
$GNGGA,042740.000,3110.99158,N,12131.30272,E,6,00,3.0,928.3,M,0.0,M,,*78       
$GNGLL,3110.99158,N,12131.30272,E,042740.000,A,E*4D                            
$GNGSA,A,2,,,,,,,,,,,,,4.0,3.0,2.6,1*33                                        
$GNGSA,A,2,,,,,,,,,,,,,4.0,3.0,2.6,4*36                                        
$GPGSV,4,1,13,02,33,144,,05,57,035,,13,73,032,,15,68,267,,0*6E                 
$GPGSV,4,2,13,18,25,319,,20,37,077,,23,08,287,,24,18,183,,0*63                 
$GPGSV,4,3,13,29,37,251,17,30,19,052,,193,71,048,,195,39,172,,0*61             
$GPGSV,4,4,13,199,53,170,,0*66                                                 
$BDGSV,4,1,13,01,46,141,,03,54,201,,08,71,010,,12,53,273,,0*79                 
$BDGSV,4,2,13,13,62,338,,16,57,207,,19,11,065,,21,47,293,,0*7D                 
$BDGSV,4,3,13,22,54,027,,35,18,174,,38,77,062,,39,68,211,,0*71                 
$BDGSV,4,4,13,44,52,227,,0*46                                                  
$GNRMC,042740.000,A,3110.99158,N,12131.30272,E,84.06,55.64,270921,,,E,V*07     
$GNVTG,55.64,T,,M,84.06,N,155.68,K,E*20                                        
$GNZDA,042740.000,27,09,2021,00,00*40                                          
$GPTXT,01,01,01,ANTENNA OPEN*25                                                
$GPTXT,01,01,02,INS_INF=3,9,0,2,0,RAM,1*6D                                     
$GNGGA,042741.000,3110.98608,N,12131.29171,E,6,00,3.0,928.0,M,0.0,M,,*71       
$GNGLL,3110.98608,N,12131.29171,E,042741.000,A,E*47                            
$GNGSA,A,2,,,,,,,,,,,,,4.0,3.0,2.6,1*33                                        
$GNGSA,A,2,,,,,,,,,,,,,4.0,3.0,2.6,4*36                                        
$GPGSV,4,1,13,02,33,144,,05,57,035,,13,73,032,,15,68,267,,0*6E                 
$GPGSV,4,2,13,18,25,319,,20,37,077,,23,08,287,,24,18,183,,0*63                 
$GPGSV,4,3,13,29,37,251,17,30,19,052,,193,71,048,,195,39,172,,0*61             
$GPGSV,4,4,13,199,53,170,,0*66                                                 
$BDGSV,4,1,13,01,46,141,,03,54,201,,08,71,010,,12,53,273,,0*79                 
$BDGSV,4,2,13,13,62,338,,16,57,207,,19,11,065,,21,47,293,,0*7D                 
$BDGSV,4,3,13,22,54,027,,35,18,174,,38,77,062,,39,68,211,,0*71                 
$BDGSV,4,4,13,44,52,227,,0*46                                                  
$GNRMC,042741.000,A,3110.98608,N,12131.29171,E,85.70,55.05,270921,,,E,V*0A     
$GNVTG,55.05,T,,M,85.70,N,158.72,K,E*21                                        
$GNZDA,042741.000,27,09,2021,00,00*41                                          
$GPTXT,01,01,01,ANTENNA OPEN*25                                                
$GPTXT,01,01,02,INS_INF=3,9,0,2,0,RAM,1*6D                                     
$GNGGA,042742.000,3110.97837,N,12131.27835,E,6,00,3.0,926.2,M,0.0,M,,*74       
$GNGLL,3110.97837,N,12131.27835,E,042742.000,A,E*4E                            
$GNGSA,A,2,,,,,,,,,,,,,4.0,3.0,2.6,1*33                                        
$GNGSA,A,2,,,,,,,,,,,,,4.0,3.0,2.6,4*36                                        
$GPGSV,4,1,13,02,33,144,,05,57,035,,13,73,032,,15,68,267,,0*6E                 
$GPGSV,4,2,13,18,25,319,,20,37,077,,23,08,287,,24,18,183,,0*63                 
$GPGSV,4,3,13,29,37,251,,30,19,052,,193,71,048,,195,39,172,,0*67               
$GPGSV,4,4,13,199,53,170,,0*66                                                 
$BDGSV,4,1,13,01,46,141,,03,54,201,,08,71,010,,12,53,273,,0*79                 
$BDGSV,4,2,13,13,62,338,,16,57,207,,19,11,065,,21,47,293,,0*7D                 
$BDGSV,4,3,13,22,54,027,,35,18,174,,38,77,062,,39,68,211,,0*71                 
$BDGSV,4,4,13,44,52,227,,0*46                                                  
$GNRMC,042742.000,A,3110.97837,N,12131.27835,E,87.82,55.92,270921,,,E,V*02     
$GNVTG,55.92,T,,M,87.82,N,162.64,K,E*2E                                        
$GNZDA,042742.000,27,09,2021,00,00*42                                          
$GPTXT,01,01,01,ANTENNA OPEN*25                                                
$GPTXT,01,01,02,INS_INF=3,9,0,2,0,RAM,1*6D                                     
$GNGGA,042743.000,3110.96683,N,12131.25595,E,6,00,3.0,922.7,M,0.0,M,,*71       
$GNGLL,3110.96683,N,12131.25595,E,042743.000,A,E*4A                            
$GNGSA,A,2,,,,,,,,,,,,,4.0,3.0,2.6,1*33                                        
$GNGSA,A,2,,,,,,,,,,,,,4.0,3.0,2.6,4*36                                        
$GPGSV,4,1,13,02,33,144,,05,57,035,,13,73,032,,15,68,267,,0*6E                 
$GPGSV,4,2,13,18,25,319,,20,37,077,,23,08,287,,24,18,183,,0*63                 
$GPGSV,4,3,13,29,37,251,,30,19,052,,193,71,048,,195,39,172,,0*67               
$GPGSV,4,4,13,199,53,170,,0*66                                                 
$BDGSV,4,1,13,01,46,141,,03,54,201,,08,71,010,,12,53,273,,0*79                 
$BDGSV,4,2,13,13,62,338,,16,57,207,,19,11,065,,21,47,293,,0*7D                 
$BDGSV,4,3,13,22,53,027,,35,18,174,,38,77,062,,39,68,211,,0*76                 
$BDGSV,4,4,13,44,52,227,,0*46                                                  
$GNRMC,042743.000,A,3110.96683,N,12131.25595,E,90.95,58.83,270921,,,E,V*0B     
$GNVTG,58.83,T,,M,90.95,N,168.45,K,E*2A                                        
$GNZDA,042743.000,27,09,2021,00,00*43                                          
$GPTXT,01,01,01,ANTENNA OPEN*25                                                
$GPTXT,01,01,02,INS_INF=3,9,0,2,0,RAM,1*6D                                     
$GNGGA,042744.000,3110.95633,N,12131.23950,E,6,00,3.0,919.1,M,0.0,M,,*73       
$GNGLL,3110.95633,N,12131.23950,E,042744.000,A,E*46                            
$GNGSA,A,2,,,,,,,,,,,,,4.0,3.0,2.6,1*33                                        
$GNGSA,A,2,,,,,,,,,,,,,4.0,3.0,2.6,4*36                                        
$GPGSV,4,1,13,02,33,144,,05,57,035,,13,73,032,,15,68,267,,0*6E                 
$GPGSV,4,2,13,18,25,319,,20,37,077,,23,08,287,,24,18,183,,0*63                 
$GPGSV,4,3,13,29,37,251,,30,19,052,,193,71,048,,195,39,172,,0*67               
$GPGSV,4,4,13,199,53,170,,0*66                                                 
$BDGSV,4,1,13,01,46,141,,03,54,201,,08,71,010,,12,53,273,,0*79                 
$BDGSV,4,2,13,13,62,338,,16,58,207,,19,11,065,,21,47,293,,0*72                 
$BDGSV,4,3,13,22,53,027,,35,18,174,,38,77,062,,39,68,211,,0*76                 
$BDGSV,4,4,13,44,52,227,,0*46                                                  
$GNRMC,042744.000,A,3110.95633,N,12131.23950,E,93.18,58.57,270921,,,E,V*08     
$GNVTG,58.57,T,,M,93.18,N,172.57,K,E*2D                                        
$GNZDA,042744.000,27,09,2021,00,00*44                                          
$GPTXT,01,01,01,ANTENNA OPEN*25                                                
$GPTXT,01,01,02,INS_INF=3,9,0,2,0,RAM,1*6D                                     
$GNGGA,042745.000,3110.94344,N,12131.21704,E,6,00,3.0,914.2,M,0.0,M,,*75       
$GNGLL,3110.94344,N,12131.21704,E,042745.000,A,E*4E                            
$GNGSA,A,2,,,,,,,,,,,,,4.0,3.0,2.6,1*33                                        
$GNGSA,A,2,,,,,,,,,,,,,4.0,3.0,2.6,4*36                                        
$GPGSV,4,1,13,02,33,145,,05,57,035,,13,73,032,,15,68,267,,0*6F                 
$GPGSV,4,2,13,18,25,319,,20,37,077,,23,08,287,,24,18,183,,0*63                 
$GPGSV,4,3,13,29,37,251,,30,19,052,,193,71,048,,195,39,172,,0*67               
$GPGSV,4,4,13,199,53,170,,0*66                                                 
$BDGSV,4,1,13,01,46,141,,03,54,201,,08,71,010,,12,53,273,,0*79                 
$BDGSV,4,2,13,13,62,338,,16,58,207,,19,11,065,,21,47,293,,0*72                 
$BDGSV,4,3,13,22,53,027,,35,18,174,,38,77,062,,39,68,211,,0*76                 
$BDGSV,4,4,13,44,52,227,,0*46                                                  
$GNRMC,042745.000,A,3110.94344,N,12131.21704,E,95.58,60.76,270921,,,E,V*0A     
$GNVTG,60.76,T,,M,95.58,N,177.01,K,E*21                                        
$GNZDA,042745.000,27,09,2021,00,00*45                                          
$GPTXT,01,01,01,ANTENNA OPEN*25                                                
$GPTXT,01,01,02,INS_INF=3,9,0,2,0,RAM,1*6D                                     
$GNGGA,042746.000,3110.93001,N,12131.19300,E,6,00,3.0,909.3,M,0.0,M,,*75       
$GNGLL,3110.93001,N,12131.19300,E,042746.000,A,E*43                            
$GNGSA,A,2,,,,,,,,,,,,,4.0,3.0,2.6,1*33                                        
$GNGSA,A,2,,,,,,,,,,,,,4.0,3.0,2.6,4*36                                        
$GPGSV,4,1,13,02,33,145,,05,57,035,,13,73,032,,15,68,267,,0*6F                 
$GPGSV,4,2,13,18,25,319,,20,37,077,,23,08,287,,24,18,183,,0*63                 
$GPGSV,4,3,13,29,37,251,,30,19,052,,193,71,048,,195,39,172,,0*67               
$GPGSV,4,4,13,199,53,170,,0*66                                                 
$BDGSV,4,1,13,01,46,141,,03,54,201,,08,71,010,,12,53,273,,0*79                 
$BDGSV,4,2,13,13,62,338,,16,58,207,,19,11,065,,21,47,293,,0*72                 
$BDGSV,4,3,13,22,53,027,,35,18,174,,38,77,062,,39,68,211,,0*76                 
$BDGSV,4,4,13,44,52,227,,0*46                                                  
$GNRMC,042746.000,A,3110.93001,N,12131.19300,E,97.40,60.83,270921,,,E,V*06     
$GNVTG,60.83,T,,M,97.40,N,180.38,K,E*22                                        
$GNZDA,042746.000,27,09,2021,00,00*46                                          
$GPTXT,01,01,01,ANTENNA OPEN*25                                                
$GPTXT,01,01,02,INS_INF=3,9,0,2,0,RAM,1*6D                                     
$GNGGA,042747.000,3110.91622,N,12131.16876,E,6,00,3.0,904.3,M,0.0,M,,*79       
$GNGLL,3110.91622,N,12131.16876,E,042747.000,A,E*42                            
$GNGSA,A,2,,,,,,,,,,,,,4.0,3.0,2.6,1*33                                        
$GNGSA,A,2,,,,,,,,,,,,,4.0,3.0,2.6,4*36                                        
$GPGSV,4,1,13,02,33,145,,05,57,035,,13,73,032,,15,68,267,,0*6F                 
$GPGSV,4,2,13,18,25,319,,20,37,077,,23,08,287,,24,18,183,,0*63                 
$GPGSV,4,3,13,29,37,251,,30,19,052,,193,71,048,,195,39,172,,0*67               
$GPGSV,4,4,13,199,53,170,,0*66                                                 
$BDGSV,4,1,13,01,46,141,,03,54,201,,08,71,010,,12,53,273,,0*79                 
$BDGSV,4,2,13,13,62,338,,16,58,207,,19,11,065,,21,47,293,,0*72                 
$BDGSV,4,3,13,22,53,027,,35,18,174,,38,77,062,,39,68,211,,0*76                 
$BDGSV,4,4,13,44,52,227,,0*46                                                  
$GNRMC,042747.000,A,3110.91622,N,12131.16876,E,99.29,60.37,270921,,,E,V*09     
$GNVTG,60.37,T,,M,99.29,N,183.89,K,E*25                                        
$GNZDA,042747.000,27,09,2021,00,00*47                                          
$GPTXT,01,01,01,ANTENNA OPEN*25                                                
$GPTXT,01,01,02,INS_INF=3,9,0,2,0,RAM,1*6D                                     
$GNGGA,042748.000,3110.90213,N,12131.14402,E,6,00,3.0,899.3,M,0.0,M,,*79       
$GNGLL,3110.90213,N,12131.14402,E,042748.000,A,E*47                            
$GNGSA,A,2,,,,,,,,,,,,,4.0,3.0,2.6,1*33                                        
$GNGSA,A,2,,,,,,,,,,,,,4.0,3.0,2.6,4*36                                        
$GPGSV,4,1,13,02,33,145,,05,57,035,,13,73,032,,15,68,267,,0*6F                 
$GPGSV,4,2,13,18,25,319,,20,37,077,,23,08,287,,24,18,183,,0*63                 
$GPGSV,4,3,13,29,37,251,,30,19,052,,193,71,048,,195,39,172,,0*67               
$GPGSV,4,4,13,199,53,170,,0*66                                                 
$BDGSV,4,1,13,01,46,141,,03,54,201,,08,71,010,,12,53,273,,0*79                 
$BDGSV,4,2,13,13,62,338,,16,58,207,,19,11,065,,21,47,293,,0*72                 
$BDGSV,4,3,13,22,53,027,,35,18,174,,38,77,062,,39,68,211,,0*76                 
$BDGSV,4,4,13,44,52,227,,0*46                                                  
$GNRMC,042748.000,A,3110.90213,N,12131.14402,E,101.33,60.08,270921,,,E,V*3B    
$GNVTG,60.08,T,,M,101.33,N,187.67,K,E*16                                       
$GNZDA,042748.000,27,09,2021,00,00*48                                          
$GPTXT,01,01,01,ANTENNA OPEN*25                                                
$GPTXT,01,01,02,INS_INF=3,9,0,2,0,RAM,1*6D                                     
$GNGGA,042749.000,3110.88803,N,12131.11874,E,6,00,3.0,894.3,M,0.0,M,,*7F       
